[
{
    "name": "Nyköping",
    "lat": 58.7545409,
    "lon": 17.0120656
},
{
    "name": "Nykvarn",
    "lat": 59.1772398,
    "lon": 17.431243
},
{
    "name": "Söderköping",
    "lat": 58.4823802,
    "lon": 16.3216224
},
{
    "name": "Valdemarsvik",
    "lat": 58.2025901,
    "lon": 16.6032191
},
{
    "name": "Lilla Edet",
    "lat": 58.1350719,
    "lon": 12.128477
},
{
    "name": "Ludvika",
    "lat": 60.1503771,
    "lon": 15.1813989
},
{
    "name": "Höganäs",
    "lat": 56.2008565,
    "lon": 12.5515849
},
{
    "name": "Vansbro",
    "lat": 60.5102674,
    "lon": 14.2255613
},
{
    "name": "Malung",
    "lat": 60.6864461,
    "lon": 13.7145867
},
{
    "name": "Tidaholm",
    "lat": 58.1803687,
    "lon": 13.9596994
},
{
    "name": "Skövde",
    "lat": 58.3898453,
    "lon": 13.8443792
},
{
    "name": "Karlskoga",
    "lat": 59.3291667,
    "lon": 14.5176911
},
{
    "name": "Degerfors",
    "lat": 59.2361209,
    "lon": 14.4297309
},
{
    "name": "Fjugesta",
    "lat": 59.1734088,
    "lon": 14.8709494
},
{
    "name": "Vara",
    "lat": 58.2610628,
    "lon": 12.9521468
},
{
    "name": "Kristinehamn",
    "lat": 59.3113619,
    "lon": 14.11176
},
{
    "name": "Nora",
    "lat": 59.5187493,
    "lon": 15.0387972
},
{
    "name": "Hagfors",
    "lat": 60.0320521,
    "lon": 13.7002392
},
{
    "name": "Askersund",
    "lat": 58.8799641,
    "lon": 14.9028069
},
{
    "name": "Sigtuna",
    "lat": 59.6165201,
    "lon": 17.7236301
},
{
    "name": "Ljungby",
    "lat": 56.8325886,
    "lon": 13.9359916
},
{
    "name": "Skara",
    "lat": 58.3846075,
    "lon": 13.4397675
},
{
    "name": "Mora",
    "lat": 61.0082091,
    "lon": 14.5431333
},
{
    "name": "Orsa",
    "lat": 61.1201175,
    "lon": 14.6222536
},
{
    "name": "Sveg",
    "lat": 62.0360709,
    "lon": 14.3598392
},
{
    "name": "Lindesberg",
    "lat": 59.5930569,
    "lon": 15.2264966
},
{
    "name": "Kopparberg",
    "lat": 59.8745061,
    "lon": 14.9903848
},
{
    "name": "Hällefors",
    "lat": 59.7837945,
    "lon": 14.5221142
},
{
    "name": "Borlänge",
    "lat": 60.4856426,
    "lon": 15.4234561
},
{
    "name": "Lysekil",
    "lat": 58.2771735,
    "lon": 11.4430987
},
{
    "name": "Trollhättan",
    "lat": 58.2827931,
    "lon": 12.2908612
},
{
    "name": "Vänersborg",
    "lat": 58.3811988,
    "lon": 12.3226877
},
{
    "name": "Uddevalla",
    "lat": 58.3490555,
    "lon": 11.9382855
},
{
    "name": "Vetlanda",
    "lat": 57.4260178,
    "lon": 15.0870226
},
{
    "name": "Vimmerby",
    "lat": 57.6653495,
    "lon": 15.8563269
},
{
    "name": "Nässjö",
    "lat": 57.6530377,
    "lon": 14.6981554
},
{
    "name": "Eksjö",
    "lat": 57.6674439,
    "lon": 14.9735595
},
{
    "name": "Västervik",
    "lat": 57.7594186,
    "lon": 16.6385035
},
{
    "name": "Kumla",
    "lat": 59.130171,
    "lon": 15.1443464
},
{
    "name": "Storfors",
    "lat": 59.5316393,
    "lon": 14.2726055
},
{
    "name": "Munkfors",
    "lat": 59.83417,
    "lon": 13.5481044
},
{
    "name": "Visby",
    "lat": 57.6379361,
    "lon": 18.297982
},
{
    "name": "Lund",
    "lat": 55.7029296,
    "lon": 13.1929449
},
{
    "name": "Simrishamn",
    "lat": 55.5565541,
    "lon": 14.3499903
},
{
    "name": "Ystad",
    "lat": 55.4329849,
    "lon": 13.8196555
},
{
    "name": "Kristianstad",
    "lat": 56.0293778,
    "lon": 14.1566859
},
{
    "name": "Osby",
    "lat": 56.3827464,
    "lon": 13.9932853
},
{
    "name": "Karlshamn",
    "lat": 56.1701723,
    "lon": 14.8631279
},
{
    "name": "Ronneby",
    "lat": 56.2100417,
    "lon": 15.2760355
},
{
    "name": "Nybro",
    "lat": 56.7452259,
    "lon": 15.9061542
},
{
    "name": "Herrljunga",
    "lat": 58.0783609,
    "lon": 13.0257241
},
{
    "name": "Lidköping",
    "lat": 58.5037196,
    "lon": 13.1576427
},
{
    "name": "Mariestad",
    "lat": 58.7093225,
    "lon": 13.8228754
},
{
    "name": "Norrköping",
    "lat": 58.5909124,
    "lon": 16.1903511
},
{
    "name": "Trelleborg",
    "lat": 55.37592,
    "lon": 13.1461522
},
{
    "name": "Hallsberg",
    "lat": 59.0660302,
    "lon": 15.1089181
},
{
    "name": "Katrineholm",
    "lat": 58.9960335,
    "lon": 16.2067589
},
{
    "name": "Flen",
    "lat": 59.0567823,
    "lon": 16.5893
},
{
    "name": "Enköping",
    "lat": 59.6356115,
    "lon": 17.077856
},
{
    "name": "Hudiksvall",
    "lat": 61.7281607,
    "lon": 17.105575
},
{
    "name": "Bollnäs",
    "lat": 61.3513005,
    "lon": 16.3972013
},
{
    "name": "Söderhamn",
    "lat": 61.2998501,
    "lon": 17.0607599
},
{
    "name": "Edsbyn",
    "lat": 61.3774428,
    "lon": 15.8181755
},
{
    "name": "Sandviken",
    "lat": 60.619422,
    "lon": 16.7724214
},
{
    "name": "Härnösand",
    "lat": 62.6323084,
    "lon": 17.9379914
},
{
    "name": "Haparanda",
    "lat": 65.835667,
    "lon": 24.1357213
},
{
    "name": "Landskrona",
    "lat": 55.8698007,
    "lon": 12.8296734
},
{
    "name": "Lomma",
    "lat": 55.6745348,
    "lon": 13.0708928
},
{
    "name": "Ängelholm",
    "lat": 56.2429224,
    "lon": 12.8619375
},
{
    "name": "Båstad",
    "lat": 56.4267895,
    "lon": 12.8607151
},
{
    "name": "Sölvesborg",
    "lat": 56.0506535,
    "lon": 14.5871906
},
{
    "name": "Åhus",
    "lat": 55.9235165,
    "lon": 14.2955222
},
{
    "name": "Bromölla",
    "lat": 56.076158,
    "lon": 14.4681732
},
{
    "name": "Töreboda",
    "lat": 58.7081061,
    "lon": 14.1239738
},
{
    "name": "Vårgårda",
    "lat": 58.0316492,
    "lon": 12.8090407
},
{
    "name": "Alingsås",
    "lat": 57.9299658,
    "lon": 12.5329678
},
{
    "name": "Kinna",
    "lat": 57.5080076,
    "lon": 12.6970568
},
{
    "name": "Oskarshamn",
    "lat": 57.2632811,
    "lon": 16.4443478
},
{
    "name": "Vingåker",
    "lat": 59.0433723,
    "lon": 15.8715565
},
{
    "name": "Norrtälje",
    "lat": 59.7591735,
    "lon": 18.7037476
},
{
    "name": "Götene",
    "lat": 58.5280626,
    "lon": 13.4921229
},
{
    "name": "Mellerud",
    "lat": 58.6990356,
    "lon": 12.4543462
},
{
    "name": "Åmål",
    "lat": 59.054803,
    "lon": 12.7057062
},
{
    "name": "Säffle",
    "lat": 59.1329314,
    "lon": 12.9248679
},
{
    "name": "Avesta",
    "lat": 60.1469553,
    "lon": 16.1826996
},
{
    "name": "Ulricehamn",
    "lat": 57.7913848,
    "lon": 13.4130426
},
{
    "name": "Kalix",
    "lat": 65.8589171,
    "lon": 23.1403303
},
{
    "name": "Övertorneå",
    "lat": 66.3900454,
    "lon": 23.6550021
},
{
    "name": "Hjo",
    "lat": 58.3012958,
    "lon": 14.2879244
},
{
    "name": "Karlsborg",
    "lat": 58.5359075,
    "lon": 14.5054884
},
{
    "name": "Boden",
    "lat": 65.8275004,
    "lon": 21.6964105
},
{
    "name": "Ed",
    "lat": 58.9125825,
    "lon": 11.9340137
},
{
    "name": "Jokkmokk",
    "lat": 66.6058539,
    "lon": 19.8379317
},
{
    "name": "Arjeplog",
    "lat": 66.0517686,
    "lon": 17.89168
},
{
    "name": "Arvidsjaur",
    "lat": 65.5947672,
    "lon": 19.1695024
},
{
    "name": "Sunne",
    "lat": 59.8401813,
    "lon": 13.1354808
},
{
    "name": "Deje",
    "lat": 59.6059394,
    "lon": 13.4636486
},
{
    "name": "Forshaga",
    "lat": 59.5290618,
    "lon": 13.4826031
},
{
    "name": "Mjölby",
    "lat": 58.3254361,
    "lon": 15.131448
},
{
    "name": "Munkedal",
    "lat": 58.4666055,
    "lon": 11.6733554
},
{
    "name": "Tanumshede",
    "lat": 58.7219089,
    "lon": 11.3323854
},
{
    "name": "Kungshamn",
    "lat": 58.3608171,
    "lon": 11.2511421
},
{
    "name": "Skärhamn",
    "lat": 57.9909221,
    "lon": 11.549795
},
{
    "name": "Henån",
    "lat": 58.2361634,
    "lon": 11.6793381
},
{
    "name": "Kungälv",
    "lat": 57.8707862,
    "lon": 11.9788622
},
{
    "name": "Grästorp",
    "lat": 58.3328302,
    "lon": 12.679212
},
{
    "name": "Nossebro",
    "lat": 58.1883968,
    "lon": 12.7192098
},
{
    "name": "Kramfors",
    "lat": 62.9306117,
    "lon": 17.7839901
},
{
    "name": "Sollefteå",
    "lat": 63.1680239,
    "lon": 17.2654472
},
{
    "name": "Lidingö",
    "lat": 59.3643845,
    "lon": 18.133142
},
{
    "name": "Arvika",
    "lat": 59.6543555,
    "lon": 12.5916225
},
{
    "name": "Kil",
    "lat": 59.5020632,
    "lon": 13.3175439
},
{
    "name": "Grums",
    "lat": 59.3518935,
    "lon": 13.1056834
},
{
    "name": "Vålberg",
    "lat": 59.3953811,
    "lon": 13.1934701
},
{
    "name": "Fagersta",
    "lat": 60.0038627,
    "lon": 15.7906054
},
{
    "name": "Sala",
    "lat": 59.9202268,
    "lon": 16.6056444
},
{
    "name": "Märsta",
    "lat": 59.6252383,
    "lon": 17.8515672
},
{
    "name": "Skinnskatteberg",
    "lat": 59.8297956,
    "lon": 15.6877802
},
{
    "name": "Storuman",
    "lat": 65.0950769,
    "lon": 17.1179718
},
{
    "name": "Vilhelmina",
    "lat": 64.6256988,
    "lon": 16.6543924
},
{
    "name": "Dorotea",
    "lat": 64.2619222,
    "lon": 16.4083118
},
{
    "name": "Strömsund",
    "lat": 63.8516664,
    "lon": 15.5582353
},
{
    "name": "Svenstavik",
    "lat": 62.766806,
    "lon": 14.4324223
},
{
    "name": "Habo",
    "lat": 57.9092463,
    "lon": 14.0743562
},
{
    "name": "Mullsjö",
    "lat": 57.9168131,
    "lon": 13.8804724
},
{
    "name": "Täby",
    "lat": 59.43674,
    "lon": 18.05614
},
{
    "name": "Södertälje",
    "lat": 59.1964289,
    "lon": 17.6271663
},
{
    "name": "Årjäng",
    "lat": 59.3927862,
    "lon": 12.1352312
},
{
    "name": "Bengtsfors",
    "lat": 59.0309288,
    "lon": 12.222887
},
{
    "name": "Värnamo",
    "lat": 57.184902,
    "lon": 14.0410977
},
{
    "name": "Kungsbacka",
    "lat": 57.4888563,
    "lon": 12.0787529
},
{
    "name": "Lindome",
    "lat": 57.5791257,
    "lon": 12.0876599
},
{
    "name": "Mölndal",
    "lat": 57.6564918,
    "lon": 12.0153085
},
{
    "name": "Varberg",
    "lat": 57.1057412,
    "lon": 12.2502949
},
{
    "name": "Falkenberg",
    "lat": 56.904894,
    "lon": 12.4912926
},
{
    "name": "Hyltebruk",
    "lat": 56.9999142,
    "lon": 13.2403039
},
{
    "name": "Knivsta",
    "lat": 59.7279085,
    "lon": 17.7881747
},
{
    "name": "Tibro",
    "lat": 58.4248905,
    "lon": 14.1631194
},
{
    "name": "Lerum",
    "lat": 57.7701659,
    "lon": 12.2695051
},
{
    "name": "Mölnlycke",
    "lat": 57.6583613,
    "lon": 12.1135762
},
{
    "name": "Strömstad",
    "lat": 58.9377567,
    "lon": 11.1736096
},
{
    "name": "Järfälla",
    "lat": 59.4204736,
    "lon": 17.8285472
},
{
    "name": "Sollentuna",
    "lat": 59.4293164,
    "lon": 17.9500556
},
{
    "name": "Danderyd",
    "lat": 59.4043647,
    "lon": 18.0358505
},
{
    "name": "Norberg",
    "lat": 60.067823,
    "lon": 15.9210594
},
{
    "name": "Oxelösund",
    "lat": 58.6700167,
    "lon": 17.1040821
},
{
    "name": "Rättvik",
    "lat": 60.8837542,
    "lon": 15.1226783
},
{
    "name": "Leksand",
    "lat": 60.7329032,
    "lon": 14.9968205
},
{
    "name": "Hova",
    "lat": 58.8578203,
    "lon": 14.2175182
},
{
    "name": "Borgholm",
    "lat": 56.8799276,
    "lon": 16.6561377
},
{
    "name": "Djursholm",
    "lat": 59.3973535,
    "lon": 18.0880625
},
{
    "name": "Mörbylånga",
    "lat": 56.5249607,
    "lon": 16.3802337
},
{
    "name": "Surahammar",
    "lat": 59.707058,
    "lon": 16.2219947
},
{
    "name": "Mörrum",
    "lat": 56.1928572,
    "lon": 14.7532545
},
{
    "name": "Kiruna",
    "lat": 67.8550724,
    "lon": 20.2255482
},
{
    "name": "Tumba",
    "lat": 59.2005555,
    "lon": 17.8343123
},
{
    "name": "Gällivare",
    "lat": 67.135243,
    "lon": 20.6604843
},
{
    "name": "Överkalix",
    "lat": 66.3270552,
    "lon": 22.8436881
},
{
    "name": "Vallentuna",
    "lat": 59.5332247,
    "lon": 18.0764505
},
{
    "name": "Åkersberga",
    "lat": 59.4823516,
    "lon": 18.2943981
},
{
    "name": "Gislaved",
    "lat": 57.3019768,
    "lon": 13.5392235
},
{
    "name": "Arboga",
    "lat": 59.394187,
    "lon": 15.8396643
},
{
    "name": "Staffanstorp",
    "lat": 55.6427393,
    "lon": 13.2113993
},
{
    "name": "Solna",
    "lat": 59.361367,
    "lon": 18.0013693
},
{
    "name": "Sundbyberg",
    "lat": 59.3628802,
    "lon": 17.9681359
},
{
    "name": "Arlöv",
    "lat": 55.6378013,
    "lon": 13.0777501
},
{
    "name": "Vellinge",
    "lat": 55.470895,
    "lon": 13.0199449
},
{
    "name": "Sjöbo",
    "lat": 55.6350867,
    "lon": 13.7031168
},
{
    "name": "Bjärred",
    "lat": 55.7221863,
    "lon": 13.0216436
},
{
    "name": "Upplands Väsby",
    "lat": 59.517164,
    "lon": 17.9164192
},
{
    "name": "Ekerö",
    "lat": 59.2904595,
    "lon": 17.813072
},
{
    "name": "Bräcke",
    "lat": 62.7521274,
    "lon": 15.4198705
},
{
    "name": "Vännäs",
    "lat": 63.9059347,
    "lon": 19.7512844
},
{
    "name": "Vindeln",
    "lat": 64.2021768,
    "lon": 19.7197398
},
{
    "name": "Älvsbyn",
    "lat": 65.6751413,
    "lon": 20.9969227
},
{
    "name": "Strängnäs",
    "lat": 59.3763155,
    "lon": 17.0268194
},
{
    "name": "Skoghall",
    "lat": 59.3241856,
    "lon": 13.4705229
},
{
    "name": "Gnesta",
    "lat": 59.0454209,
    "lon": 17.30897
},
{
    "name": "Ockelbo",
    "lat": 60.889389,
    "lon": 16.7173614
},
{
    "name": "Timrå",
    "lat": 62.4893197,
    "lon": 17.3273736
},
{
    "name": "Hammarstrand",
    "lat": 63.1085771,
    "lon": 16.3558429
},
{
    "name": "Öckerö",
    "lat": 57.7092534,
    "lon": 11.6564098
},
{
    "name": "Olofström",
    "lat": 56.2789975,
    "lon": 14.5333253
},
{
    "name": "Krokom",
    "lat": 63.3258817,
    "lon": 14.449431
},
{
    "name": "Järpen",
    "lat": 63.348376,
    "lon": 13.4636687
},
{
    "name": "Hofors",
    "lat": 60.5454521,
    "lon": 16.2855241
},
{
    "name": "Bergsjö",
    "lat": 61.9837757,
    "lon": 17.0583699
},
{
    "name": "Kungsör",
    "lat": 59.4248622,
    "lon": 16.0950394
},
{
    "name": "Älvdalen",
    "lat": 61.2298989,
    "lon": 14.0373946
},
{
    "name": "Lycksele",
    "lat": 64.5958617,
    "lon": 18.6777559
},
{
    "name": "Norsjö",
    "lat": 64.9132139,
    "lon": 19.4800731
},
{
    "name": "Malå",
    "lat": 65.1864842,
    "lon": 18.7465354
},
{
    "name": "Sorsele",
    "lat": 65.5330663,
    "lon": 17.536874
},
{
    "name": "Åsele",
    "lat": 64.1604218,
    "lon": 17.3558144
},
{
    "name": "Bjurholm",
    "lat": 63.9320592,
    "lon": 19.2189925
},
{
    "name": "Robertsfors",
    "lat": 64.1932853,
    "lon": 20.8542742
},
{
    "name": "Nordmaling",
    "lat": 63.5700868,
    "lon": 19.5018895
},
{
    "name": "Svedala",
    "lat": 55.5152421,
    "lon": 13.2384358
},
{
    "name": "Köping",
    "lat": 59.5137434,
    "lon": 15.9970475
},
{
    "name": "Nynäshamn",
    "lat": 58.9056457,
    "lon": 17.9470987
},
{
    "name": "Vaxholm",
    "lat": 59.40406,
    "lon": 18.331331
},
{
    "name": "Alvesta",
    "lat": 56.8997562,
    "lon": 14.5546493
},
{
    "name": "Tierp",
    "lat": 60.3429614,
    "lon": 17.5168395
},
{
    "name": "Östhammar",
    "lat": 60.2590164,
    "lon": 18.3736581
},
{
    "name": "Åtvidaberg",
    "lat": 58.2009877,
    "lon": 16.0018979
},
{
    "name": "Markaryd",
    "lat": 56.4596131,
    "lon": 13.5919834
},
{
    "name": "Åseda",
    "lat": 57.1691268,
    "lon": 15.3525029
},
{
    "name": "Tingsryd",
    "lat": 56.5279063,
    "lon": 14.9771884
},
{
    "name": "Sävsjö",
    "lat": 57.4021387,
    "lon": 14.6667098
},
{
    "name": "Vaggeryd",
    "lat": 57.4980578,
    "lon": 14.1484787
},
{
    "name": "Skillingaryd",
    "lat": 57.4289474,
    "lon": 14.091985
},
{
    "name": "Gnosjö",
    "lat": 57.3569728,
    "lon": 13.7350863
},
{
    "name": "Tranås",
    "lat": 58.0379566,
    "lon": 14.9776937
},
{
    "name": "Aneby",
    "lat": 57.838069,
    "lon": 14.8100784
},
{
    "name": "Trosa",
    "lat": 58.8967057,
    "lon": 17.5478116
},
{
    "name": "Bålsta",
    "lat": 59.5682102,
    "lon": 17.5293647
},
{
    "name": "Hultsfred",
    "lat": 57.4898352,
    "lon": 15.8428142
},
{
    "name": "Tomelilla",
    "lat": 55.5437984,
    "lon": 13.9541222
},
{
    "name": "Ödeshög",
    "lat": 58.2315432,
    "lon": 14.6554063
},
{
    "name": "Eslöv",
    "lat": 55.8374959,
    "lon": 13.3036265
},
{
    "name": "Höör",
    "lat": 55.9332915,
    "lon": 13.5453834
},
{
    "name": "Hässleholm",
    "lat": 56.157986,
    "lon": 13.7653328
},
{
    "name": "Åstorp",
    "lat": 56.1351211,
    "lon": 12.9462464
},
{
    "name": "Klippan",
    "lat": 56.1340267,
    "lon": 13.1332245
},
{
    "name": "Perstorp",
    "lat": 56.1376968,
    "lon": 13.3952814
},
{
    "name": "Örkelljunga",
    "lat": 56.2839768,
    "lon": 13.2784525
},
{
    "name": "Hörby",
    "lat": 55.8540136,
    "lon": 13.6633304
},
{
    "name": "Kävlinge",
    "lat": 55.7912944,
    "lon": 13.1073471
},
{
    "name": "Skurup",
    "lat": 55.4840328,
    "lon": 13.5015909
},
{
    "name": "Bjuv",
    "lat": 56.0842983,
    "lon": 12.9167304
},
{
    "name": "Broby",
    "lat": 56.2549337,
    "lon": 14.0777187
},
{
    "name": "Säter",
    "lat": 60.3469718,
    "lon": 15.7486886
},
{
    "name": "Hedemora",
    "lat": 60.2785997,
    "lon": 15.9870293
},
{
    "name": "Skutskär",
    "lat": 60.6352228,
    "lon": 17.4092868
},
{
    "name": "Marstrand",
    "lat": 57.8867618,
    "lon": 11.5887974
},
{
    "name": "Bro",
    "lat": 59.514658,
    "lon": 17.6426027
},
{
    "name": "Emmaboda",
    "lat": 56.6308333,
    "lon": 15.5406619
},
{
    "name": "Svenljunga",
    "lat": 57.4963122,
    "lon": 13.1122599
},
{
    "name": "Tranemo",
    "lat": 57.4849975,
    "lon": 13.3517534
},
{
    "name": "Kungsängen",
    "lat": 59.4786677,
    "lon": 17.7511698
},
{
    "name": "Kisa",
    "lat": 57.9875021,
    "lon": 15.622841
},
{
    "name": "Mönsterås",
    "lat": 57.0429558,
    "lon": 16.4448013
},
{
    "name": "Högsby",
    "lat": 57.1652915,
    "lon": 16.0261862
},
{
    "name": "Torsås",
    "lat": 56.4124084,
    "lon": 16.0030732
},
{
    "name": "Laholm",
    "lat": 56.5132738,
    "lon": 13.043458
},
{
    "name": "Partille",
    "lat": 57.7406279,
    "lon": 12.1100789
},
{
    "name": "Huskvarna",
    "lat": 57.7918701,
    "lon": 14.2739261
},
{
    "name": "Boo",
    "lat": 59.3205986,
    "lon": 18.2613337
},
{
    "name": "Smedjebacken",
    "lat": 60.1414965,
    "lon": 15.4151046
},
{
    "name": "Djurås",
    "lat": 60.560541,
    "lon": 15.1303132
},
{
    "name": "Hallstahammar",
    "lat": 59.6134488,
    "lon": 16.2301613
},
{
    "name": "Heby",
    "lat": 59.9416821,
    "lon": 16.8579115
},
{
    "name": "Finspång",
    "lat": 58.70773,
    "lon": 15.7758645
},
{
    "name": "Boxholm",
    "lat": 58.1981005,
    "lon": 15.0571207
},
{
    "name": "Österbymo",
    "lat": 57.8247951,
    "lon": 15.2753967
},
{
    "name": "Bollebygd",
    "lat": 57.6688624,
    "lon": 12.5707216
},
{
    "name": "Torslanda",
    "lat": 57.7243742,
    "lon": 11.7653423
},
{
    "name": "Nödinge-Nol",
    "lat": 57.9068771,
    "lon": 12.0601607
},
{
    "name": "Ljusdal",
    "lat": 61.8293755,
    "lon": 16.0953598
},
{
    "name": "Sälen",
    "lat": 61.1557237,
    "lon": 13.2694088
},
{
    "name": "Lönsboda",
    "lat": 56.3985844,
    "lon": 14.3213269
},
{
    "name": "Oxie",
    "lat": 55.5461572,
    "lon": 13.0967868
},
{
    "name": "Svalöv",
    "lat": 55.9136519,
    "lon": 13.1069825
},
{
    "name": "Gränna",
    "lat": 58.0250583,
    "lon": 14.4673146
},
{
    "name": "Nacka",
    "lat": 59.3099477,
    "lon": 18.1677049
},
{
    "name": "Jordbro",
    "lat": 59.1423991,
    "lon": 18.1317918
},
{
    "name": "Handen",
    "lat": 59.1676451,
    "lon": 18.1409008
},
{
    "name": "Mariefred",
    "lat": 59.2599454,
    "lon": 17.2229487
},
{
    "name": "Öregrund",
    "lat": 60.338115,
    "lon": 18.4421817
},
{
    "name": "Tyresö",
    "lat": 59.2390408,
    "lon": 18.3073536
},
{
    "name": "Skattkärr",
    "lat": 59.4133819,
    "lon": 13.674373
},
{
    "name": "Åmotfors",
    "lat": 59.7625867,
    "lon": 12.362227
},
{
    "name": "Motala",
    "lat": 58.5420395,
    "lon": 15.041261
},
{
    "name": "Malmberget",
    "lat": 67.1761182,
    "lon": 20.6589359
},
{
    "name": "Flemingsberg",
    "lat": 59.2223899,
    "lon": 17.9398948
},
{
    "name": "Filipstad",
    "lat": 59.7135483,
    "lon": 14.1680314
},
{
    "name": "Skellefteå",
    "lat": 64.7520185,
    "lon": 20.959339
},
{
    "name": "Ånge",
    "lat": 62.5243364,
    "lon": 15.6604002
},
{
    "name": "Piteå",
    "lat": 65.3134764,
    "lon": 21.4899394
},
{
    "name": "Älmhult",
    "lat": 56.5512883,
    "lon": 14.1391762
},
{
    "name": "Onsala",
    "lat": 57.4272188,
    "lon": 12.0302702
},
{
    "name": "Stuvsta-Snättringe",
    "lat": 59.2532237,
    "lon": 17.9850911
},
{
    "name": "Falköping",
    "lat": 58.1695083,
    "lon": 13.5542412
},
{
    "name": "Borås",
    "lat": 57.7210839,
    "lon": 12.9407407
},
{
    "name": "Pajala",
    "lat": 67.2090363,
    "lon": 23.3647298
},
{
    "name": "Torsby",
    "lat": 60.1355208,
    "lon": 13.0067884
},
{
    "name": "Charlottenberg",
    "lat": 59.8839607,
    "lon": 12.3049207
},
{
    "name": "Sjödalen-Fullersta",
    "lat": 59.2362466,
    "lon": 17.9761219
},
{
    "name": "Koppom",
    "lat": 59.7031557,
    "lon": 12.1494597
},
{
    "name": "Höllviken",
    "lat": 55.4137626,
    "lon": 12.9632315
},
{
    "name": "Huddinge",
    "lat": 59.2293827,
    "lon": 17.9748815
},
{
    "name": "Skanör med Falsterbo",
    "lat": 55.4060076,
    "lon": 12.8443425
},
{
    "name": "Gustavsberg",
    "lat": 59.3256235,
    "lon": 18.388514
},
{
    "name": "Skänninge",
    "lat": 58.3955804,
    "lon": 15.0867705
},
{
    "name": "Vadstena",
    "lat": 58.4488105,
    "lon": 14.8915928
},
{
    "name": "Lessebo",
    "lat": 56.7504634,
    "lon": 15.2714213
},
{
    "name": "Älta",
    "lat": 59.2573973,
    "lon": 18.1812421
},
{
    "name": "Västerhaninge",
    "lat": 59.1221593,
    "lon": 18.1085969
},
{
    "name": "Stenungsund",
    "lat": 58.0725069,
    "lon": 11.8229383
},
{
    "name": "Färgelanda",
    "lat": 58.5692203,
    "lon": 11.9965125
},
{
    "name": "Laxå",
    "lat": 58.9853347,
    "lon": 14.618827
},
{
    "name": "Narvik",
    "lat": 68.4396792,
    "lon": 17.426652
},
{
    "name": "Storslett",
    "lat": 69.7681817,
    "lon": 21.0245482
},
{
    "name": "Harstad",
    "lat": 68.8012505,
    "lon": 16.5201176
},
{
    "name": "Mandal",
    "lat": 58.0268181,
    "lon": 7.4534802
},
{
    "name": "Kirkenes",
    "lat": 69.7271478,
    "lon": 30.0448971
},
{
    "name": "Ås",
    "lat": 59.6639488,
    "lon": 10.790161
},
{
    "name": "Halden",
    "lat": 59.1245724,
    "lon": 11.3875227
},
{
    "name": "Stjørdal",
    "lat": 63.4698298,
    "lon": 10.9230674
},
{
    "name": "Elverum",
    "lat": 60.8829633,
    "lon": 11.5602384
},
{
    "name": "Hamar",
    "lat": 60.7947828,
    "lon": 11.0680997
},
{
    "name": "Arendal",
    "lat": 58.4596408,
    "lon": 8.7666023
},
{
    "name": "Askim",
    "lat": 59.583327,
    "lon": 11.1641532
},
{
    "name": "Brekstad",
    "lat": 63.6868699,
    "lon": 9.6663716
},
{
    "name": "Bryne",
    "lat": 58.7333088,
    "lon": 5.6503503
},
{
    "name": "Brønnøysund",
    "lat": 65.4737042,
    "lon": 12.2111915
},
{
    "name": "Farsund",
    "lat": 58.0951137,
    "lon": 6.8047461
},
{
    "name": "Fauske",
    "lat": 67.2609773,
    "lon": 15.398648
},
{
    "name": "Finnsnes",
    "lat": 69.2322815,
    "lon": 17.9805425
},
{
    "name": "Fosnavåg",
    "lat": 62.342253,
    "lon": 5.6333501
},
{
    "name": "Gjøvik",
    "lat": 60.796633,
    "lon": 10.6934904
},
{
    "name": "Førde",
    "lat": 61.4521316,
    "lon": 5.8572636
},
{
    "name": "Hammerfest",
    "lat": 70.6636329,
    "lon": 23.6791211
},
{
    "name": "Holmestrand",
    "lat": 59.4899583,
    "lon": 10.3150445
},
{
    "name": "Hokksund",
    "lat": 59.7705536,
    "lon": 9.90702
},
{
    "name": "Horten",
    "lat": 59.4166459,
    "lon": 10.4838599
},
{
    "name": "Honningsvåg",
    "lat": 70.9827154,
    "lon": 25.9743779
},
{
    "name": "Kongsberg",
    "lat": 59.6693196,
    "lon": 9.6515097
},
{
    "name": "Kongsvinger",
    "lat": 60.1866725,
    "lon": 12.0050299
},
{
    "name": "Jørpeland",
    "lat": 59.0240227,
    "lon": 6.0438845
},
{
    "name": "Kristiansund",
    "lat": 63.1150646,
    "lon": 7.7332899
},
{
    "name": "Kragerø",
    "lat": 58.8696217,
    "lon": 9.4142145
},
{
    "name": "Leknes",
    "lat": 68.1453921,
    "lon": 13.61002
},
{
    "name": "Levanger",
    "lat": 63.7462033,
    "lon": 11.2998629
},
{
    "name": "Langesund",
    "lat": 59.000697,
    "lon": 9.7484437
},
{
    "name": "Larvik",
    "lat": 59.053173,
    "lon": 10.027182
},
{
    "name": "Lyngdal",
    "lat": 58.1379878,
    "lon": 7.0685965
},
{
    "name": "Lillehammer",
    "lat": 61.1145379,
    "lon": 10.4671034
},
{
    "name": "Lillesand",
    "lat": 58.2479943,
    "lon": 8.3775716
},
{
    "name": "Mosjøen",
    "lat": 65.8376537,
    "lon": 13.1943186
},
{
    "name": "Molde",
    "lat": 62.7378836,
    "lon": 7.1589568
},
{
    "name": "Mo i Rana",
    "lat": 66.3110969,
    "lon": 14.1386991
},
{
    "name": "Namsos",
    "lat": 64.4662785,
    "lon": 11.4955902
},
{
    "name": "Måløy",
    "lat": 61.9353815,
    "lon": 5.1135697
},
{
    "name": "Mysen",
    "lat": 59.5556968,
    "lon": 11.3259216
},
{
    "name": "Odda",
    "lat": 60.0666667,
    "lon": 6.55
},
{
    "name": "Notodden",
    "lat": 59.5593283,
    "lon": 9.2592923
},
{
    "name": "Hønefoss",
    "lat": 60.1666996,
    "lon": 10.2550853
},
{
    "name": "Otta",
    "lat": 61.7712098,
    "lon": 9.5394379
},
{
    "name": "Sandvika",
    "lat": 59.8905671,
    "lon": 10.5271801
},
{
    "name": "Sauda",
    "lat": 59.6502547,
    "lon": 6.3543716
},
{
    "name": "Rjukan",
    "lat": 59.8786889,
    "lon": 8.5941727
},
{
    "name": "Sandnessjøen",
    "lat": 66.0222279,
    "lon": 12.6364387
},
{
    "name": "Stathelle",
    "lat": 59.0450062,
    "lon": 9.6977418
},
{
    "name": "Steinkjer",
    "lat": 64.0185782,
    "lon": 11.4937998
},
{
    "name": "Ski",
    "lat": 59.7199284,
    "lon": 10.8382744
},
{
    "name": "Skudeneshavn",
    "lat": 59.1508737,
    "lon": 5.2550843
},
{
    "name": "Sortland",
    "lat": 68.705422,
    "lon": 15.4143625
},
{
    "name": "Tvedestrand",
    "lat": 58.6226202,
    "lon": 8.9312914
},
{
    "name": "Stokmarknes",
    "lat": 68.5619325,
    "lon": 14.9077614
},
{
    "name": "Svolvær",
    "lat": 68.2347719,
    "lon": 14.564736
},
{
    "name": "Svelvik",
    "lat": 59.6135205,
    "lon": 10.4091066
},
{
    "name": "Åkrehamn",
    "lat": 59.2666667,
    "lon": 5.1833333
},
{
    "name": "Åndalsnes",
    "lat": 62.5678096,
    "lon": 7.6891801
},
{
    "name": "Ulsteinvik",
    "lat": 62.3432661,
    "lon": 5.8483848
},
{
    "name": "Verdalsøra",
    "lat": 63.7921736,
    "lon": 11.4830651
},
{
    "name": "Vardø",
    "lat": 70.3677049,
    "lon": 31.0997854
},
{
    "name": "Vossavangen",
    "lat": 60.6286944,
    "lon": 6.4147445
},
{
    "name": "Asker",
    "lat": 59.8347053,
    "lon": 10.4350677
},
{
    "name": "Tynset",
    "lat": 62.2775149,
    "lon": 10.7769656
},
{
    "name": "Sogndal",
    "lat": 61.2310369,
    "lon": 7.09309
},
{
    "name": "Røros",
    "lat": 62.5745822,
    "lon": 11.3836273
},
{
    "name": "Eidsvoll",
    "lat": 60.3285925,
    "lon": 11.2613229
},
{
    "name": "Ørsta",
    "lat": 62.2023256,
    "lon": 6.1289531
},
{
    "name": "Volda",
    "lat": 62.1484466,
    "lon": 6.0698678
},
{
    "name": "Nesoddtangen",
    "lat": 59.8563647,
    "lon": 10.6618625
},
{
    "name": "Sunndalsøra",
    "lat": 62.6750314,
    "lon": 8.563095
},
{
    "name": "Alta",
    "lat": 69.9669551,
    "lon": 23.2725462
},
{
    "name": "Vennesla",
    "lat": 58.2688968,
    "lon": 7.9713527
},
{
    "name": "Lillestrøm",
    "lat": 59.955923,
    "lon": 11.0491123
},
{
    "name": "Stavern",
    "lat": 58.9983397,
    "lon": 10.0360061
},
{
    "name": "Åsgårdstrand",
    "lat": 59.3491387,
    "lon": 10.4680198
},
{
    "name": "Jessheim",
    "lat": 60.1415058,
    "lon": 11.1751426
},
{
    "name": "Florø",
    "lat": 61.5998581,
    "lon": 5.0320356
},
{
    "name": "Grimstad",
    "lat": 58.3413026,
    "lon": 8.5934098
},
{
    "name": "Vinstra",
    "lat": 61.5963235,
    "lon": 9.7321814
},
{
    "name": "Longyearbyen",
    "lat": 78.2231558,
    "lon": 15.6463656
},
{
    "name": "Rørvik",
    "lat": 64.8623037,
    "lon": 11.2346459
},
{
    "name": "Orkanger",
    "lat": 63.3050275,
    "lon": 9.8497373
},
{
    "name": "Fagernes",
    "lat": 60.9862581,
    "lon": 9.2363406
},
{
    "name": "Rognan",
    "lat": 67.1003378,
    "lon": 15.4001191
},
{
    "name": "Moelv",
    "lat": 60.9305469,
    "lon": 10.6996643
},
{
    "name": "Barentsburg",
    "lat": 78.065362,
    "lon": 14.2172367
},
{
    "name": "Sandnes",
    "lat": 58.8517825,
    "lon": 5.7369907
},
{
    "name": "Raufoss",
    "lat": 60.7280387,
    "lon": 10.6135261
},
{
    "name": "Osøyro",
    "lat": 60.1851447,
    "lon": 5.4698394
},
{
    "name": "Bø",
    "lat": 59.4123421,
    "lon": 9.0679224
},
{
    "name": "Sola",
    "lat": 58.8871602,
    "lon": 5.647697
},
{
    "name": "Ålgård",
    "lat": 58.7678685,
    "lon": 5.8492082
},
{
    "name": "Råholt",
    "lat": 60.2838578,
    "lon": 11.1728733
},
{
    "name": "Lakselv",
    "lat": 70.0524656,
    "lon": 24.9636392
},
{
    "name": "Flekkefjord",
    "lat": 58.2972667,
    "lon": 6.6604201
},
{
    "name": "Egersund",
    "lat": 58.4518952,
    "lon": 5.9999963
},
{
    "name": "Brevik",
    "lat": 59.0528886,
    "lon": 9.699978
},
{
    "name": "Glomfjord",
    "lat": 66.8166262,
    "lon": 13.9440905
},
{
    "name": "Leirvik",
    "lat": 59.7798008,
    "lon": 5.5012164
},
{
    "name": "Kopervik",
    "lat": 59.2836139,
    "lon": 5.3067005
},
{
    "name": "Randaberg",
    "lat": 58.9996678,
    "lon": 5.6181339
},
{
    "name": "Vadsø",
    "lat": 70.0745265,
    "lon": 29.7525051
},
{
    "name": "Risør",
    "lat": 58.7207522,
    "lon": 9.2343838
},
{
    "name": "Brumunddal",
    "lat": 60.8866339,
    "lon": 10.9368128
},
{
    "name": "Oppdal",
    "lat": 62.5951984,
    "lon": 9.6860883
},
{
    "name": "Rakkestad",
    "lat": 59.4279914,
    "lon": 11.3399373
},
{
    "name": "Lørenskog",
    "lat": 59.9281257,
    "lon": 10.9534659
},
{
    "name": "Drøbak",
    "lat": 59.6632937,
    "lon": 10.6294465
},
{
    "name": "Rijpsburg",
    "lat": 78.3818823,
    "lon": 14.660228
},
{
    "name": "Helsingør",
    "lat": 56.0348739,
    "lon": 12.6130073
},
{
    "name": "Sønderborg",
    "lat": 54.9089186,
    "lon": 9.7897999
},
{
    "name": "Varde",
    "lat": 55.6176702,
    "lon": 8.4811757
},
{
    "name": "Holbæk",
    "lat": 55.7186117,
    "lon": 11.7135474
},
{
    "name": "Ringsted",
    "lat": 55.446817,
    "lon": 11.7975218
},
{
    "name": "Ølstykke",
    "lat": 55.7765597,
    "lon": 12.1717405
},
{
    "name": "Aabenraa",
    "lat": 55.0446228,
    "lon": 9.4209667
},
{
    "name": "Frederikssund",
    "lat": 55.8417752,
    "lon": 12.063595
},
{
    "name": "Herning",
    "lat": 56.1379757,
    "lon": 8.9746623
},
{
    "name": "Vordingborg",
    "lat": 55.0102518,
    "lon": 11.9097478
},
{
    "name": "Helsinge",
    "lat": 56.0211073,
    "lon": 12.1951087
},
{
    "name": "Ikast",
    "lat": 56.1390178,
    "lon": 9.1547931
},
{
    "name": "Nakskov",
    "lat": 54.8304979,
    "lon": 11.1493517
},
{
    "name": "Birkerød",
    "lat": 55.8403369,
    "lon": 12.4287796
},
{
    "name": "Hedensted",
    "lat": 55.7705233,
    "lon": 9.6994255
},
{
    "name": "Humlebæk",
    "lat": 55.9618789,
    "lon": 12.5305462
},
{
    "name": "Tranbjerg",
    "lat": 56.0905987,
    "lon": 10.1330099
},
{
    "name": "Fredericia",
    "lat": 55.565268,
    "lon": 9.7562169
},
{
    "name": "Hundested",
    "lat": 55.9668501,
    "lon": 11.8515494
},
{
    "name": "Fredensborg",
    "lat": 55.9740003,
    "lon": 12.4050622
},
{
    "name": "Frederiksværk",
    "lat": 55.9737042,
    "lon": 12.0210564
},
{
    "name": "Værløse",
    "lat": 55.783333,
    "lon": 12.383333
},
{
    "name": "Haslev",
    "lat": 55.3271115,
    "lon": 11.9567297
},
{
    "name": "Nivå",
    "lat": 55.935056,
    "lon": 12.5013529
},
{
    "name": "Rudkøbing",
    "lat": 54.9377498,
    "lon": 10.7167568
},
{
    "name": "Smørumnedre",
    "lat": 55.7366023,
    "lon": 12.2998472
},
{
    "name": "Hørsholm",
    "lat": 55.8832986,
    "lon": 12.5000112
},
{
    "name": "Høng",
    "lat": 55.5084661,
    "lon": 11.2927612
},
{
    "name": "Nyborg",
    "lat": 55.3098281,
    "lon": 10.7976604
},
{
    "name": "Skive",
    "lat": 56.5659301,
    "lon": 9.029272
},
{
    "name": "Næstved",
    "lat": 55.2328252,
    "lon": 11.7674102
},
{
    "name": "Korsør",
    "lat": 55.3266045,
    "lon": 11.1425876
},
{
    "name": "Haderslev",
    "lat": 55.2500715,
    "lon": 9.4997871
},
{
    "name": "Køge",
    "lat": 55.4565009,
    "lon": 12.1818964
},
{
    "name": "Hadsten",
    "lat": 56.3290887,
    "lon": 10.0523863
},
{
    "name": "Ringe",
    "lat": 55.2351317,
    "lon": 10.481895
},
{
    "name": "Vejen",
    "lat": 55.4743417,
    "lon": 9.1317951
},
{
    "name": "Maribo",
    "lat": 54.7758018,
    "lon": 11.5054333
},
{
    "name": "Silkeborg",
    "lat": 56.169453,
    "lon": 9.5495141
},
{
    "name": "Måløv",
    "lat": 55.7493484,
    "lon": 12.3192001
},
{
    "name": "Sorø",
    "lat": 55.4365822,
    "lon": 11.5629363
},
{
    "name": "Nykøbing Falster",
    "lat": 54.7646137,
    "lon": 11.8709918
},
{
    "name": "Nykøbing M",
    "lat": 56.7943811,
    "lon": 8.8594834
},
{
    "name": "Farum",
    "lat": 55.8101232,
    "lon": 12.3702505
},
{
    "name": "Skanderborg",
    "lat": 56.0351868,
    "lon": 9.9317878
},
{
    "name": "Jyllinge",
    "lat": 55.7535209,
    "lon": 12.1086079
},
{
    "name": "Taastrup",
    "lat": 55.6522136,
    "lon": 12.292049
},
{
    "name": "Odder",
    "lat": 55.975832,
    "lon": 10.1513202
},
{
    "name": "Middelfart",
    "lat": 55.4993014,
    "lon": 9.7392181
},
{
    "name": "Faaborg",
    "lat": 55.097087,
    "lon": 10.2428246
},
{
    "name": "Hillerød",
    "lat": 55.9285735,
    "lon": 12.3063909
},
{
    "name": "Kalundborg",
    "lat": 55.6833793,
    "lon": 11.0993619
},
{
    "name": "Greve Strand",
    "lat": 55.5833746,
    "lon": 12.2999286
},
{
    "name": "Slagelse",
    "lat": 55.4061196,
    "lon": 11.3525415
},
{
    "name": "Dragør",
    "lat": 55.592487,
    "lon": 12.6719953
},
{
    "name": "Rønne",
    "lat": 55.0994511,
    "lon": 14.7060906
},
{
    "name": "Hedehusene",
    "lat": 55.6520089,
    "lon": 12.1971455
},
{
    "name": "Kokkedal",
    "lat": 55.9046232,
    "lon": 12.4983774
},
{
    "name": "Tilst",
    "lat": 56.1921152,
    "lon": 10.1117391
},
{
    "name": "Ribe",
    "lat": 55.3284036,
    "lon": 8.7647838
},
{
    "name": "Tønder",
    "lat": 54.9380637,
    "lon": 8.8629408
},
{
    "name": "Solrød Strand",
    "lat": 55.534253,
    "lon": 12.2193108
},
{
    "name": "Skagen",
    "lat": 57.7259703,
    "lon": 10.5844602
},
{
    "name": "Frederikshavn",
    "lat": 57.4412134,
    "lon": 10.5336225
},
{
    "name": "Sæby",
    "lat": 57.3316758,
    "lon": 10.5174617
},
{
    "name": "Hjørring",
    "lat": 57.457183,
    "lon": 9.9855998
},
{
    "name": "Brønderslev",
    "lat": 57.2700129,
    "lon": 9.9448631
},
{
    "name": "Nørresundby",
    "lat": 57.0607251,
    "lon": 9.9241319
},
{
    "name": "Svenstrup",
    "lat": 56.9773211,
    "lon": 9.8525837
},
{
    "name": "Thisted",
    "lat": 56.9562093,
    "lon": 8.6848749
},
{
    "name": "Aars",
    "lat": 56.8033777,
    "lon": 9.5168986
},
{
    "name": "Hobro",
    "lat": 56.6371753,
    "lon": 9.7939799
},
{
    "name": "Hadsund",
    "lat": 56.7193519,
    "lon": 10.1151108
},
{
    "name": "Bjerringbro",
    "lat": 56.3758414,
    "lon": 9.656576
},
{
    "name": "Viborg",
    "lat": 56.4469128,
    "lon": 9.4059354
},
{
    "name": "Holstebro",
    "lat": 56.3590324,
    "lon": 8.6159188
},
{
    "name": "Struer",
    "lat": 56.4866768,
    "lon": 8.5951427
},
{
    "name": "Ringkøbing",
    "lat": 56.090357,
    "lon": 8.2542739
},
{
    "name": "Skjern",
    "lat": 55.9469339,
    "lon": 8.4909186
},
{
    "name": "Beder-Malling",
    "lat": 56.0494063,
    "lon": 10.2017147
},
{
    "name": "Lillerød",
    "lat": 55.8707776,
    "lon": 12.3556762
},
{
    "name": "Hinnerup",
    "lat": 56.2678199,
    "lon": 10.0688688
},
{
    "name": "Svendborg",
    "lat": 55.0629877,
    "lon": 10.6070651
},
{
    "name": "Grenaa",
    "lat": 56.4134419,
    "lon": 10.8793137
},
{
    "name": "Marstal",
    "lat": 54.8558332,
    "lon": 10.5174056
},
{
    "name": "Støvring",
    "lat": 56.8847204,
    "lon": 9.833064
},
{
    "name": "Bredsten",
    "lat": 55.7022191,
    "lon": 9.3819326
},
{
    "name": "Lystrup",
    "lat": 56.2363205,
    "lon": 10.238378
},
{
    "name": "Rødding",
    "lat": 55.3680577,
    "lon": 9.0581471
},
{
    "name": "Bork Havn",
    "lat": 55.8399265,
    "lon": 8.2813269
},
{
    "name": "Sakskøbing",
    "lat": 54.798788,
    "lon": 11.6341381
},
{
    "name": "Harjavalta",
    "lat": 61.3121553,
    "lon": 22.1336155
},
{
    "name": "Luvia",
    "lat": 61.3601139,
    "lon": 21.6267263
},
{
    "name": "Porvoo",
    "lat": 60.3953913,
    "lon": 25.6604862
},
{
    "name": "Kauniainen",
    "lat": 60.2098563,
    "lon": 24.7294936
},
{
    "name": "Pörtom",
    "lat": 62.7100207,
    "lon": 21.6163442
},
{
    "name": "Kangasniemi",
    "lat": 61.9895047,
    "lon": 26.6440817
},
{
    "name": "Kiikka",
    "lat": 61.3208905,
    "lon": 22.7780861
},
{
    "name": "Vörå",
    "lat": 63.1304959,
    "lon": 22.250699
},
{
    "name": "Kankaanpää",
    "lat": 61.8027147,
    "lon": 22.3965338
},
{
    "name": "Karvia",
    "lat": 62.1373063,
    "lon": 22.5603265
},
{
    "name": "Koria",
    "lat": 60.8454623,
    "lon": 26.6029463
},
{
    "name": "Veikkola",
    "lat": 60.2693626,
    "lon": 24.4426969
},
{
    "name": "Sirkka",
    "lat": 67.8075595,
    "lon": 24.8055734
},
{
    "name": "Pieksämäki",
    "lat": 62.300466,
    "lon": 27.1639512
},
{
    "name": "Naarajärvi",
    "lat": 62.2837287,
    "lon": 27.0507496
},
{
    "name": "Kirkkonummi",
    "lat": 60.1227857,
    "lon": 24.4406694
},
{
    "name": "Hyvinkää",
    "lat": 60.6335719,
    "lon": 24.8695328
},
{
    "name": "Imatra",
    "lat": 61.1923342,
    "lon": 28.7716996
},
{
    "name": "Jakobstad",
    "lat": 63.6666709,
    "lon": 22.7000229
},
{
    "name": "Järvenpää",
    "lat": 60.4743601,
    "lon": 25.0925118
},
{
    "name": "Kemi",
    "lat": 65.7333404,
    "lon": 24.5666495
},
{
    "name": "Kerava",
    "lat": 60.4034398,
    "lon": 25.1041013
},
{
    "name": "Nokia",
    "lat": 61.4781666,
    "lon": 23.5096158
},
{
    "name": "Raisio",
    "lat": 60.488138,
    "lon": 22.1635993
},
{
    "name": "Rauma",
    "lat": 61.1289148,
    "lon": 21.5039401
},
{
    "name": "Riihimäki",
    "lat": 60.7390089,
    "lon": 24.7728148
},
{
    "name": "Varkaus",
    "lat": 62.3176377,
    "lon": 27.8681227
},
{
    "name": "Äänekoski",
    "lat": 62.6032186,
    "lon": 25.7301361
},
{
    "name": "Ähtäri",
    "lat": 62.5499772,
    "lon": 24.0702272
},
{
    "name": "Alahärmä",
    "lat": 63.2432345,
    "lon": 22.8533944
},
{
    "name": "Anjala",
    "lat": 60.6861934,
    "lon": 26.8124995
},
{
    "name": "Aura",
    "lat": 60.6499508,
    "lon": 22.5865661
},
{
    "name": "Ekenäs",
    "lat": 59.9744647,
    "lon": 23.4357477
},
{
    "name": "Eura",
    "lat": 61.1304007,
    "lon": 22.1302126
},
{
    "name": "Forssa",
    "lat": 60.8155736,
    "lon": 23.629833
},
{
    "name": "Haapajärvi",
    "lat": 63.7514785,
    "lon": 25.3134586
},
{
    "name": "Haapavesi",
    "lat": 64.1378737,
    "lon": 25.3658176
},
{
    "name": "Halikko",
    "lat": 60.3965428,
    "lon": 23.0784257
},
{
    "name": "Hämeenkyrö",
    "lat": 61.633333,
    "lon": 23.2
},
{
    "name": "Hamina",
    "lat": 60.5688901,
    "lon": 27.1881877
},
{
    "name": "Haukipudas",
    "lat": 65.1763737,
    "lon": 25.3532265
},
{
    "name": "Himanka",
    "lat": 64.0628458,
    "lon": 23.6530833
},
{
    "name": "Huittinen",
    "lat": 61.1833622,
    "lon": 22.7003288
},
{
    "name": "Humppila",
    "lat": 60.933333,
    "lon": 23.366667
},
{
    "name": "Hyrynsalmi",
    "lat": 64.6747218,
    "lon": 28.4922537
},
{
    "name": "Iisalmi",
    "lat": 63.5567679,
    "lon": 27.1892281
},
{
    "name": "Ikaalinen",
    "lat": 61.7701493,
    "lon": 23.0633777
},
{
    "name": "Ilmajoki",
    "lat": 62.731342,
    "lon": 22.5797719
},
{
    "name": "Ilomantsi",
    "lat": 62.6730588,
    "lon": 30.9322642
},
{
    "name": "Ingå",
    "lat": 60.0466389,
    "lon": 24.0054417
},
{
    "name": "Inkeroinen",
    "lat": 60.699706,
    "lon": 26.8520664
},
{
    "name": "Isokyrö",
    "lat": 63,
    "lon": 22.316667
},
{
    "name": "Ivalo",
    "lat": 68.6588185,
    "lon": 27.5348114
},
{
    "name": "Jalasjärvi",
    "lat": 62.5000001,
    "lon": 22.7499928
},
{
    "name": "Jämsä",
    "lat": 61.8639814,
    "lon": 25.1845044
},
{
    "name": "Jämsänkoski",
    "lat": 61.9191417,
    "lon": 25.1793075
},
{
    "name": "Jokela",
    "lat": 60.5514226,
    "lon": 24.9678903
},
{
    "name": "Jokioinen",
    "lat": 60.8033158,
    "lon": 23.4868447
},
{
    "name": "Joutsa",
    "lat": 61.7427363,
    "lon": 26.1117278
},
{
    "name": "Joutseno",
    "lat": 61.123034,
    "lon": 28.5014586
},
{
    "name": "Juankoski",
    "lat": 63.066667,
    "lon": 28.35
},
{
    "name": "Jurva",
    "lat": 62.6833379,
    "lon": 21.9833208
},
{
    "name": "Juuka",
    "lat": 63.2412699,
    "lon": 29.2537501
},
{
    "name": "Kaavi",
    "lat": 62.9757575,
    "lon": 28.4801127
},
{
    "name": "Kälviä",
    "lat": 63.8618024,
    "lon": 23.4558353
},
{
    "name": "Iittala",
    "lat": 61.0923297,
    "lon": 24.1363201
},
{
    "name": "Kangasala",
    "lat": 61.4649006,
    "lon": 24.0659379
},
{
    "name": "Kannus",
    "lat": 63.9007773,
    "lon": 23.9170363
},
{
    "name": "Karis",
    "lat": 60.0732491,
    "lon": 23.663234
},
{
    "name": "Karkkila",
    "lat": 60.5343804,
    "lon": 24.2145287
},
{
    "name": "Karstula",
    "lat": 62.8778892,
    "lon": 24.8007998
},
{
    "name": "Kaskinen",
    "lat": 62.3845858,
    "lon": 21.2225761
},
{
    "name": "Kauhajoki",
    "lat": 62.431748,
    "lon": 22.1841988
},
{
    "name": "Kauhava",
    "lat": 63.0993728,
    "lon": 23.0569547
},
{
    "name": "Kaustinen",
    "lat": 63.5490486,
    "lon": 23.6964967
},
{
    "name": "Kellokoski",
    "lat": 60.5327072,
    "lon": 25.1102705
},
{
    "name": "Keminmaa",
    "lat": 65.803014,
    "lon": 24.5208776
},
{
    "name": "Kemijärvi",
    "lat": 66.7161179,
    "lon": 27.4333534
},
{
    "name": "Kempele",
    "lat": 64.91245,
    "lon": 25.5108223
},
{
    "name": "Keuruu",
    "lat": 62.2579819,
    "lon": 24.7083599
},
{
    "name": "Kiiminki",
    "lat": 65.1299324,
    "lon": 25.7773028
},
{
    "name": "Kitee",
    "lat": 62.1001947,
    "lon": 30.1356168
},
{
    "name": "Kittilä",
    "lat": 67.651985,
    "lon": 24.9095086
},
{
    "name": "Kiuruvesi",
    "lat": 63.6528354,
    "lon": 26.619693
},
{
    "name": "Klaukkala",
    "lat": 60.383333,
    "lon": 24.75
},
{
    "name": "Kokemäki",
    "lat": 61.2513342,
    "lon": 22.3492421
},
{
    "name": "Kontiolahti",
    "lat": 62.766667,
    "lon": 29.85
},
{
    "name": "Kristinestad",
    "lat": 62.2736018,
    "lon": 21.3730807
},
{
    "name": "Kuhmo",
    "lat": 64.1261745,
    "lon": 29.519515
},
{
    "name": "Kuhmoinen",
    "lat": 61.566667,
    "lon": 25.183333
},
{
    "name": "Kurikka",
    "lat": 62.6170727,
    "lon": 22.3992367
},
{
    "name": "Kuusamo",
    "lat": 65.9645637,
    "lon": 29.1883283
},
{
    "name": "Kuusankoski",
    "lat": 60.9069347,
    "lon": 26.6241933
},
{
    "name": "Kyläsaari",
    "lat": 61.5360385,
    "lon": 21.6716375
},
{
    "name": "Laihia",
    "lat": 62.9761064,
    "lon": 22.0122155
},
{
    "name": "Laitila",
    "lat": 60.8801155,
    "lon": 21.6926352
},
{
    "name": "Lammi",
    "lat": 61.0786178,
    "lon": 25.0099373
},
{
    "name": "Lapinlahti",
    "lat": 63.3638712,
    "lon": 27.3984804
},
{
    "name": "Lappajärvi",
    "lat": 63.2193382,
    "lon": 23.628386
},
{
    "name": "Lappfjärd",
    "lat": 62.2521309,
    "lon": 21.5209201
},
{
    "name": "Lapua",
    "lat": 62.9702783,
    "lon": 23.0068628
},
{
    "name": "Laukaa",
    "lat": 62.416667,
    "lon": 25.95
},
{
    "name": "Lehmo",
    "lat": 62.6593749,
    "lon": 29.810029
},
{
    "name": "Lempäälä",
    "lat": 61.316667,
    "lon": 23.7499999
},
{
    "name": "Leppävirta",
    "lat": 62.4894313,
    "lon": 27.7860813
},
{
    "name": "Lieksa",
    "lat": 63.3178213,
    "lon": 30.0191312
},
{
    "name": "Lieto",
    "lat": 60.5022019,
    "lon": 22.4554559
},
{
    "name": "Lievestuore",
    "lat": 62.2631219,
    "lon": 26.200397
},
{
    "name": "Liminka",
    "lat": 64.8106448,
    "lon": 25.4084842
},
{
    "name": "Liperi",
    "lat": 62.5314503,
    "lon": 29.3872024
},
{
    "name": "Lohja",
    "lat": 60.2526036,
    "lon": 24.0684575
},
{
    "name": "Loimaa",
    "lat": 60.8472453,
    "lon": 23.0513931
},
{
    "name": "Loppi",
    "lat": 60.7173615,
    "lon": 24.4414178
},
{
    "name": "Loviisa",
    "lat": 60.4564226,
    "lon": 26.2271433
},
{
    "name": "Malax",
    "lat": 62.9332091,
    "lon": 21.5667698
},
{
    "name": "Mäntsälä",
    "lat": 60.6339269,
    "lon": 25.3188193
},
{
    "name": "Masku",
    "lat": 60.566667,
    "lon": 22.1
},
{
    "name": "Merikarvia",
    "lat": 61.8590135,
    "lon": 21.5032079
},
{
    "name": "Muhos",
    "lat": 64.8063089,
    "lon": 25.9953642
},
{
    "name": "Muurame",
    "lat": 62.1289925,
    "lon": 25.6749474
},
{
    "name": "Myllykoski",
    "lat": 60.7689175,
    "lon": 26.7921954
},
{
    "name": "Mynämäki",
    "lat": 60.67889,
    "lon": 21.9861075
},
{
    "name": "Naantali",
    "lat": 60.4688687,
    "lon": 22.0291149
},
{
    "name": "Nakkila",
    "lat": 61.3664981,
    "lon": 22.0000209
},
{
    "name": "Närpes",
    "lat": 62.4779756,
    "lon": 21.336676
},
{
    "name": "Nastola",
    "lat": 60.9482796,
    "lon": 25.9335713
},
{
    "name": "Nilsiä",
    "lat": 63.2046382,
    "lon": 28.086253
},
{
    "name": "Nivala",
    "lat": 63.9289531,
    "lon": 24.9612586
},
{
    "name": "Nurmes",
    "lat": 63.5422079,
    "lon": 29.14101
},
{
    "name": "Nurmijärvi",
    "lat": 60.466667,
    "lon": 24.8000275
},
{
    "name": "Nurmo",
    "lat": 62.8285443,
    "lon": 22.911115
},
{
    "name": "Nykarleby",
    "lat": 63.5222473,
    "lon": 22.5284347
},
{
    "name": "Orimattila",
    "lat": 60.805137,
    "lon": 25.7333558
},
{
    "name": "Orivesi",
    "lat": 61.6775495,
    "lon": 24.3587506
},
{
    "name": "Oulainen",
    "lat": 64.2667732,
    "lon": 24.8000331
},
{
    "name": "Outokumpu",
    "lat": 62.7255326,
    "lon": 29.0186972
},
{
    "name": "Padasjoki",
    "lat": 61.3512901,
    "lon": 25.2785646
},
{
    "name": "Paimio",
    "lat": 60.4570244,
    "lon": 22.6883278
},
{
    "name": "Pälkäne",
    "lat": 61.3371322,
    "lon": 24.2649422
},
{
    "name": "Paltamo",
    "lat": 64.4068668,
    "lon": 27.8335512
},
{
    "name": "Pargas",
    "lat": 60.3054487,
    "lon": 22.2996452
},
{
    "name": "Parikkala",
    "lat": 61.5500927,
    "lon": 29.4999948
},
{
    "name": "Parkano",
    "lat": 62.0102011,
    "lon": 23.0245972
},
{
    "name": "Pattijoki",
    "lat": 64.7000027,
    "lon": 24.5833258
},
{
    "name": "Pello",
    "lat": 66.7747332,
    "lon": 23.9676822
},
{
    "name": "Perniö",
    "lat": 60.2050782,
    "lon": 23.1235771
},
{
    "name": "Petäjävesi",
    "lat": 62.2504776,
    "lon": 25.2004692
},
{
    "name": "Pielavesi",
    "lat": 63.2333327,
    "lon": 26.7500075
},
{
    "name": "Pihlava",
    "lat": 61.5594163,
    "lon": 21.6121352
},
{
    "name": "Pihtipudas",
    "lat": 63.3706192,
    "lon": 25.5754689
},
{
    "name": "Piikkiö",
    "lat": 60.4254332,
    "lon": 22.5130886
},
{
    "name": "Pirkkala",
    "lat": 61.4654497,
    "lon": 23.6456252
},
{
    "name": "Pojo",
    "lat": 60.1000032,
    "lon": 23.5166623
},
{
    "name": "Polvijärvi",
    "lat": 62.8545083,
    "lon": 29.3669331
},
{
    "name": "Posio",
    "lat": 66.1092595,
    "lon": 28.1650783
},
{
    "name": "Pudasjärvi",
    "lat": 65.360401,
    "lon": 26.9984899
},
{
    "name": "Puolanka",
    "lat": 64.8729778,
    "lon": 27.6552537
},
{
    "name": "Pyhäjärvi",
    "lat": 63.6809739,
    "lon": 25.9733504
},
{
    "name": "Pyhäjoki",
    "lat": 64.4663193,
    "lon": 24.2550528
},
{
    "name": "Rajamäki",
    "lat": 60.5288653,
    "lon": 24.7582108
},
{
    "name": "Ranua",
    "lat": 65.9276817,
    "lon": 26.5131044
},
{
    "name": "Rautalampi",
    "lat": 62.6206984,
    "lon": 26.8384638
},
{
    "name": "Simpele",
    "lat": 61.4318984,
    "lon": 29.3523937
},
{
    "name": "Ruokolahti",
    "lat": 61.2912416,
    "lon": 28.8295473
},
{
    "name": "Ruukki",
    "lat": 64.6646025,
    "lon": 25.1031007
},
{
    "name": "Kortesjärvi",
    "lat": 63.299887,
    "lon": 23.1573335
},
{
    "name": "Säkylä",
    "lat": 61.0506941,
    "lon": 22.333669
},
{
    "name": "Salla",
    "lat": 66.8318774,
    "lon": 28.6668631
},
{
    "name": "Savitaipale",
    "lat": 61.198266,
    "lon": 27.6815422
},
{
    "name": "Sipoo",
    "lat": 60.376199,
    "lon": 25.2651428
},
{
    "name": "Siilinjärvi",
    "lat": 63.0743109,
    "lon": 27.6623456
},
{
    "name": "Siltakylä",
    "lat": 60.4941133,
    "lon": 26.7110929
},
{
    "name": "Sodankylä",
    "lat": 67.4189716,
    "lon": 26.5902179
},
{
    "name": "Sonkajärvi",
    "lat": 63.66907,
    "lon": 27.5232488
},
{
    "name": "Sotkamo",
    "lat": 64.1318262,
    "lon": 28.3878316
},
{
    "name": "Suolahti",
    "lat": 62.5659891,
    "lon": 25.8546717
},
{
    "name": "Suonenjoki",
    "lat": 62.6241926,
    "lon": 27.1245609
},
{
    "name": "Taivalkoski",
    "lat": 65.5752942,
    "lon": 28.2425866
},
{
    "name": "Tammela",
    "lat": 60.8087874,
    "lon": 23.7598248
},
{
    "name": "Tervakoski",
    "lat": 60.8151183,
    "lon": 24.6258213
},
{
    "name": "Teuva",
    "lat": 62.486868,
    "lon": 21.7420491
},
{
    "name": "Tikkakoski",
    "lat": 62.389702,
    "lon": 25.6458923
},
{
    "name": "Tohmajärvi",
    "lat": 62.2259448,
    "lon": 30.3335512
},
{
    "name": "Tornio",
    "lat": 65.8457589,
    "lon": 24.1464
},
{
    "name": "Tuusula",
    "lat": 60.4017496,
    "lon": 25.0280695
},
{
    "name": "Tyrnävä",
    "lat": 64.7621368,
    "lon": 25.6498871
},
{
    "name": "Uimaharju",
    "lat": 62.9166655,
    "lon": 30.2499931
},
{
    "name": "Uusikaupunki",
    "lat": 60.8016507,
    "lon": 21.4086143
},
{
    "name": "Vaala",
    "lat": 64.5565274,
    "lon": 26.8466518
},
{
    "name": "Vähäkyrö",
    "lat": 63.0560665,
    "lon": 22.1083711
},
{
    "name": "Veteli",
    "lat": 63.4719205,
    "lon": 23.792566
},
{
    "name": "Vieremä",
    "lat": 63.75,
    "lon": 27.016667
},
{
    "name": "Vihtavuori",
    "lat": 62.3709678,
    "lon": 25.9049979
},
{
    "name": "Vihti",
    "lat": 60.4168803,
    "lon": 24.320558
},
{
    "name": "Viiala",
    "lat": 61.2101279,
    "lon": 23.7677914
},
{
    "name": "Viitasaari",
    "lat": 63.0837203,
    "lon": 25.8528349
},
{
    "name": "Vilppula",
    "lat": 62.0168263,
    "lon": 24.51556
},
{
    "name": "Vimpeli",
    "lat": 63.1614796,
    "lon": 23.8177693
},
{
    "name": "Virkkala",
    "lat": 60.2000053,
    "lon": 24.00001
},
{
    "name": "Virrat",
    "lat": 62.2402483,
    "lon": 23.7725594
},
{
    "name": "Heinolan kirkonkylä",
    "lat": 61.2500021,
    "lon": 26.0666714
},
{
    "name": "Äetsä",
    "lat": 61.2839792,
    "lon": 22.6938146
},
{
    "name": "Ii",
    "lat": 65.3218756,
    "lon": 25.3716223
},
{
    "name": "Ylämylly",
    "lat": 62.6114311,
    "lon": 29.5513797
},
{
    "name": "Ylihärmä",
    "lat": 63.1441197,
    "lon": 22.7956213
},
{
    "name": "Ylistaro",
    "lat": 62.9504049,
    "lon": 22.5241451
},
{
    "name": "Ylitornio",
    "lat": 66.3164258,
    "lon": 23.6712997
},
{
    "name": "Ylivieska",
    "lat": 64.0728903,
    "lon": 24.5327326
},
{
    "name": "Ylöjärvi",
    "lat": 61.5499614,
    "lon": 23.5969495
},
{
    "name": "Mäntyharju",
    "lat": 61.415461,
    "lon": 26.8797256
},
{
    "name": "Valkeala",
    "lat": 60.9376662,
    "lon": 26.8037057
},
{
    "name": "Paattinen",
    "lat": 60.5937982,
    "lon": 22.3833761
},
{
    "name": "Rautavaara",
    "lat": 63.4940502,
    "lon": 28.2984908
},
{
    "name": "Vuokatti",
    "lat": 64.1459667,
    "lon": 28.2696599
},
{
    "name": "Saarijärvi",
    "lat": 62.7050975,
    "lon": 25.2582688
},
{
    "name": "Suomusjärvi",
    "lat": 60.3806549,
    "lon": 23.5925864
},
{
    "name": "Terjärv",
    "lat": 63.5435189,
    "lon": 23.5151436
},
{
    "name": "Sysmä",
    "lat": 61.5073697,
    "lon": 25.6738915
},
{
    "name": "Luhanka",
    "lat": 61.797009,
    "lon": 25.7046425
},
{
    "name": "Korpilahti",
    "lat": 62.0168002,
    "lon": 25.5611984
},
{
    "name": "Hetta",
    "lat": 68.3854896,
    "lon": 23.6437979
},
{
    "name": "Muonio",
    "lat": 67.9593397,
    "lon": 23.6774037
},
{
    "name": "Uurainen",
    "lat": 62.5007704,
    "lon": 25.4379608
},
{
    "name": "Toijala",
    "lat": 61.1668495,
    "lon": 23.8635191
},
{
    "name": "Urjala",
    "lat": 61.0811504,
    "lon": 23.5489697
},
{
    "name": "Toivakka",
    "lat": 62.0962173,
    "lon": 26.0804935
},
{
    "name": "Leivonmäki",
    "lat": 61.9121222,
    "lon": 26.1239361
},
{
    "name": "Hartola",
    "lat": 61.5799007,
    "lon": 26.0206428
},
{
    "name": "Heinola",
    "lat": 61.2027188,
    "lon": 26.031371
},
{
    "name": "Konginkangas",
    "lat": 62.7795996,
    "lon": 25.8078233
},
{
    "name": "Sumiainen",
    "lat": 62.6571684,
    "lon": 26.0467759
},
{
    "name": "Inari",
    "lat": 68.9062456,
    "lon": 27.0260771
},
{
    "name": "Tuusniemi",
    "lat": 62.8129715,
    "lon": 28.473989
},
{
    "name": "Elimäki",
    "lat": 60.7200611,
    "lon": 26.4449324
},
{
    "name": "Kullaa",
    "lat": 61.4721221,
    "lon": 22.1529097
},
{
    "name": "Lavia",
    "lat": 61.5957453,
    "lon": 22.583402
},
{
    "name": "Sievi",
    "lat": 63.9082625,
    "lon": 24.5159868
},
{
    "name": "Savonlinna",
    "lat": 61.8689933,
    "lon": 28.8797178
},
{
    "name": "Enonkoski",
    "lat": 62.0887054,
    "lon": 28.9161938
},
{
    "name": "Heinävesi",
    "lat": 62.4263852,
    "lon": 28.6328857
},
{
    "name": "Juva",
    "lat": 61.8961369,
    "lon": 27.859727
},
{
    "name": "Joroinen",
    "lat": 62.1782081,
    "lon": 27.8284927
},
{
    "name": "Punkaharju",
    "lat": 61.7561025,
    "lon": 29.3892377
},
{
    "name": "Anttola",
    "lat": 61.5837869,
    "lon": 27.6445491
},
{
    "name": "Pyhäntä",
    "lat": 64.096296,
    "lon": 26.3316485
},
{
    "name": "Kolari",
    "lat": 67.3303348,
    "lon": 23.7814738
},
{
    "name": "Mouhijärvi",
    "lat": 61.5133807,
    "lon": 23.0022751
},
{
    "name": "Utsjoki",
    "lat": 69.907601,
    "lon": 27.0252458
},
{
    "name": "Sulkava",
    "lat": 61.7879107,
    "lon": 28.3724362
},
{
    "name": "Sammatti",
    "lat": 60.3184222,
    "lon": 23.8223204
},
{
    "name": "Replot",
    "lat": 63.2326285,
    "lon": 21.4141482
},
{
    "name": "Kyyjärvi",
    "lat": 63.0435882,
    "lon": 24.5647585
},
{
    "name": "Kuortane",
    "lat": 62.8069625,
    "lon": 23.5069225
},
{
    "name": "Kannonkoski",
    "lat": 62.9768822,
    "lon": 25.2637374
},
{
    "name": "Maaninka",
    "lat": 63.1512688,
    "lon": 27.3074265
},
{
    "name": "Keitele",
    "lat": 63.1787549,
    "lon": 26.3393047
},
{
    "name": "Rymättylä",
    "lat": 60.3778747,
    "lon": 21.9394094
},
{
    "name": "Sundom",
    "lat": 63.0334362,
    "lon": 21.5478356
},
{
    "name": "Ypäjä",
    "lat": 60.803846,
    "lon": 23.2821218
},
{
    "name": "Vihanti",
    "lat": 64.486985,
    "lon": 24.9886756
},
{
    "name": "Jaala",
    "lat": 61.0527355,
    "lon": 26.4813798
},
{
    "name": "Renko",
    "lat": 60.8973271,
    "lon": 24.2854098
},
{
    "name": "Hattula",
    "lat": 61.0736695,
    "lon": 24.3905151
},
{
    "name": "Valkeakoski",
    "lat": 61.2637921,
    "lon": 24.0301278
},
{
    "name": "Kylmäkoski",
    "lat": 61.1521648,
    "lon": 23.6895802
},
{
    "name": "Puumala",
    "lat": 61.5231859,
    "lon": 28.176906
},
{
    "name": "Rusko",
    "lat": 60.5407302,
    "lon": 22.2208801
},
{
    "name": "Saariselkä",
    "lat": 68.4213976,
    "lon": 27.4177638
},
{
    "name": "Myrskylä",
    "lat": 60.6702833,
    "lon": 25.8513925
},
{
    "name": "Ristiina",
    "lat": 61.5119849,
    "lon": 27.2559513
},
{
    "name": "Tuohikotti",
    "lat": 61.0907498,
    "lon": 27.0636743
},
{
    "name": "Järvelä",
    "lat": 60.8673772,
    "lon": 25.2779161
},
{
    "name": "Utajärvi",
    "lat": 64.7613984,
    "lon": 26.416907
},
{
    "name": "Vesanto",
    "lat": 62.9302543,
    "lon": 26.4089399
},
{
    "name": "Söderkulla",
    "lat": 60.3001908,
    "lon": 25.3258422
},
{
    "name": "Karttula",
    "lat": 62.8952013,
    "lon": 26.9723784
},
{
    "name": "Lestijärvi",
    "lat": 63.5245085,
    "lon": 24.6683036
},
{
    "name": "Raahe",
    "lat": 64.6796865,
    "lon": 24.4709175
},
{
    "name": "Lemu",
    "lat": 60.5693675,
    "lon": 21.9674857
},
{
    "name": "Nousiainen",
    "lat": 60.5992408,
    "lon": 22.0840745
},
{
    "name": "Ristijärvi",
    "lat": 64.5009039,
    "lon": 28.2131567
},
{
    "name": "Hailuoto",
    "lat": 65.0137795,
    "lon": 24.7292318
},
{
    "name": "Kinnula",
    "lat": 63.366783,
    "lon": 24.9708779
},
{
    "name": "Luopioinen",
    "lat": 61.3631311,
    "lon": 24.6591617
},
{
    "name": "Siikajoenkylä",
    "lat": 64.8127124,
    "lon": 24.7615677
},
{
    "name": "Lumijoki",
    "lat": 64.8384044,
    "lon": 25.1868431
},
{
    "name": "Kvevlax",
    "lat": 63.1601789,
    "lon": 21.8371083
},
{
    "name": "Maxmo",
    "lat": 63.2141342,
    "lon": 22.0556108
},
{
    "name": "Tenala",
    "lat": 60.0576791,
    "lon": 23.2991277
},
{
    "name": "Mariehamn",
    "lat": 60.102423,
    "lon": 19.94126
},
{
    "name": "Eno",
    "lat": 62.7990772,
    "lon": 30.1555592
},
{
    "name": "Siuntio",
    "lat": 60.1378436,
    "lon": 24.2266417
},
{
    "name": "Reisjärvi",
    "lat": 63.6041324,
    "lon": 24.9355989
},
{
    "name": "Tervo",
    "lat": 62.9563657,
    "lon": 26.7604718
},
{
    "name": "Savukoski",
    "lat": 67.2923114,
    "lon": 28.1638772
},
{
    "name": "Varpaisjärvi",
    "lat": 63.3606508,
    "lon": 27.7578918
},
{
    "name": "Oravais",
    "lat": 63.3000836,
    "lon": 22.3783194
},
{
    "name": "Evijärvi",
    "lat": 63.3670713,
    "lon": 23.4768632
},
{
    "name": "Kärsämäki",
    "lat": 63.979723,
    "lon": 25.7588484
},
{
    "name": "Korsnäs",
    "lat": 62.7863726,
    "lon": 21.18784
},
{
    "name": "Solf",
    "lat": 63.0130226,
    "lon": 21.6491188
},
{
    "name": "Ylikiiminki",
    "lat": 65.030429,
    "lon": 26.1558845
},
{
    "name": "Kestilä",
    "lat": 64.3503481,
    "lon": 26.2818607
},
{
    "name": "Rantsila",
    "lat": 64.507872,
    "lon": 25.6511941
},
{
    "name": "Piippola",
    "lat": 64.1774017,
    "lon": 25.9647773
},
{
    "name": "Vuolijoki",
    "lat": 64.181826,
    "lon": 27.0009752
},
{
    "name": "Pelkosenniemi",
    "lat": 67.1095969,
    "lon": 27.5118116
},
{
    "name": "Lehtimäki",
    "lat": 62.8190995,
    "lon": 23.9451211
},
{
    "name": "Soini",
    "lat": 62.8738088,
    "lon": 24.2076547
},
{
    "name": "Merijärvi",
    "lat": 64.2926104,
    "lon": 24.4372571
},
{
    "name": "Valtimo",
    "lat": 63.6791229,
    "lon": 28.8148724
},
{
    "name": "Paavola",
    "lat": 64.6063404,
    "lon": 25.2042701
},
{
    "name": "Tuupovaara",
    "lat": 62.486946,
    "lon": 30.6188041
},
{
    "name": "Tervola",
    "lat": 66.0822914,
    "lon": 24.8058841
},
{
    "name": "Turenki",
    "lat": 60.9204847,
    "lon": 24.6510032
},
{
    "name": "Hauho",
    "lat": 61.1751591,
    "lon": 24.5649152
},
{
    "name": "Tuulos",
    "lat": 61.1181656,
    "lon": 24.8337064
},
{
    "name": "Hollola",
    "lat": 60.9882542,
    "lon": 25.5152983
},
{
    "name": "Suomussalmi",
    "lat": 64.8847582,
    "lon": 28.9145906
},
{
    "name": "Kustavi",
    "lat": 60.5458493,
    "lon": 21.3558051
},
{
    "name": "Kisko",
    "lat": 60.2647218,
    "lon": 23.447063
},
{
    "name": "Kontiomäki",
    "lat": 64.3373145,
    "lon": 28.1104453
},
{
    "name": "Ruovesi",
    "lat": 61.9856303,
    "lon": 24.0703481
},
{
    "name": "Dragsfjärd",
    "lat": 60.0725175,
    "lon": 22.475944
},
{
    "name": "Sauvo",
    "lat": 60.3431971,
    "lon": 22.694921
},
{
    "name": "Kimito",
    "lat": 60.1660125,
    "lon": 22.7385024
},
{
    "name": "Korpo",
    "lat": 60.1620041,
    "lon": 21.5587958
},
{
    "name": "Suomenniemi",
    "lat": 61.3298492,
    "lon": 27.4469056
},
{
    "name": "Övermark",
    "lat": 62.6111694,
    "lon": 21.4706474
},
{
    "name": "Kesälahti",
    "lat": 61.8928643,
    "lon": 29.8281212
},
{
    "name": "Pyhäranta",
    "lat": 60.94988,
    "lon": 21.4426922
},
{
    "name": "Yläne",
    "lat": 60.8801075,
    "lon": 22.4102936
},
{
    "name": "Virtasalmi",
    "lat": 62.1337558,
    "lon": 27.4643922
},
{
    "name": "Halli",
    "lat": 61.8613065,
    "lon": 24.8283904
},
{
    "name": "Petalax",
    "lat": 62.8432709,
    "lon": 21.4203182
},
{
    "name": "Taipalsaari",
    "lat": 61.1611958,
    "lon": 28.0599716
},
{
    "name": "Hammarland",
    "lat": 60.2196758,
    "lon": 19.7378481
},
{
    "name": "Kodisjoki",
    "lat": 61.027396,
    "lon": 21.6889391
},
{
    "name": "Jämijärvi",
    "lat": 61.8212196,
    "lon": 22.6970217
},
{
    "name": "Askainen",
    "lat": 60.5724437,
    "lon": 21.8674083
},
{
    "name": "Taivassalo",
    "lat": 60.5629583,
    "lon": 21.6127399
},
{
    "name": "Nagu",
    "lat": 60.1923668,
    "lon": 21.9106786
},
{
    "name": "Pukkila",
    "lat": 60.6455948,
    "lon": 25.581976
},
{
    "name": "Karijoki",
    "lat": 62.307535,
    "lon": 21.7077697
},
{
    "name": "Kihniö",
    "lat": 62.2031212,
    "lon": 23.1763928
},
{
    "name": "Honkajoki",
    "lat": 61.993025,
    "lon": 22.2637409
},
{
    "name": "Isojoki",
    "lat": 62.1143416,
    "lon": 21.9587762
},
{
    "name": "Karkku",
    "lat": 61.4441341,
    "lon": 23.0493893
},
{
    "name": "Ylämaa",
    "lat": 60.7975873,
    "lon": 28.0069445
},
{
    "name": "Vehmersalmi",
    "lat": 62.7608425,
    "lon": 28.0322816
},
{
    "name": "Lapinjärvi",
    "lat": 60.6273036,
    "lon": 26.1981468
},
{
    "name": "Pylkönmäki",
    "lat": 62.6680229,
    "lon": 24.8041951
},
{
    "name": "Multia",
    "lat": 62.4099783,
    "lon": 24.8000583
},
{
    "name": "Taavetti",
    "lat": 60.922495,
    "lon": 27.5693996
},
{
    "name": "Konnevesi",
    "lat": 62.6266587,
    "lon": 26.2916036
},
{
    "name": "Hankasalmi",
    "lat": 62.3905202,
    "lon": 26.4397473
},
{
    "name": "Hirvensalmi",
    "lat": 61.6416004,
    "lon": 26.7765394
},
{
    "name": "Peräseinäjoki",
    "lat": 62.5621248,
    "lon": 23.0632748
},
{
    "name": "Halsua",
    "lat": 63.4619279,
    "lon": 24.1690324
},
{
    "name": "Riistavesi",
    "lat": 62.913289,
    "lon": 28.1606201
},
{
    "name": "Artjärvi",
    "lat": 60.7479073,
    "lon": 26.0655425
},
{
    "name": "Kronoby",
    "lat": 63.7288259,
    "lon": 23.0215188
},
{
    "name": "Bennäs",
    "lat": 63.5991475,
    "lon": 22.7887935
},
{
    "name": "Lohtaja",
    "lat": 64.0224819,
    "lon": 23.5065717
},
{
    "name": "Suodenniemi",
    "lat": 61.5584438,
    "lon": 22.7861324
},
{
    "name": "Lemi",
    "lat": 61.0618219,
    "lon": 27.8048099
},
{
    "name": "Alastaro",
    "lat": 60.9525637,
    "lon": 22.8629077
},
{
    "name": "Vampula",
    "lat": 61.0263238,
    "lon": 22.6869548
},
{
    "name": "Askola",
    "lat": 60.5271593,
    "lon": 25.6000156
},
{
    "name": "Kivijärvi",
    "lat": 63.1223025,
    "lon": 25.0725469
},
{
    "name": "Alavieska",
    "lat": 64.1701074,
    "lon": 24.2991417
},
{
    "name": "Pornainen",
    "lat": 60.4756432,
    "lon": 25.3745932
},
{
    "name": "Munsala",
    "lat": 63.4529666,
    "lon": 22.4347597
},
{
    "name": "Saimaanharju",
    "lat": 61.135786,
    "lon": 28.1027793
},
{
    "name": "Karjalohja",
    "lat": 60.2416676,
    "lon": 23.7178553
},
{
    "name": "Rääkkylä",
    "lat": 62.3143267,
    "lon": 29.6275617
},
{
    "name": "Viinijärvi",
    "lat": 62.644854,
    "lon": 29.2344594
},
{
    "name": "Salpakangas",
    "lat": 60.9881967,
    "lon": 25.5142278
},
{
    "name": "Kerimäki",
    "lat": 61.9119359,
    "lon": 29.2814119
},
{
    "name": "Maaria",
    "lat": 60.5416036,
    "lon": 22.3389068
},
{
    "name": "Mellilä",
    "lat": 60.7789662,
    "lon": 22.9255453
},
{
    "name": "Marttila",
    "lat": 60.585109,
    "lon": 22.898546
},
{
    "name": "Kiihtelysvaara",
    "lat": 62.489299,
    "lon": 30.2512885
},
{
    "name": "Littoinen",
    "lat": 60.4477424,
    "lon": 22.405396
},
{
    "name": "Kalajoki",
    "lat": 64.260017,
    "lon": 23.950545
},
{
    "name": "Haukivuori",
    "lat": 62.0245497,
    "lon": 27.2056601
},
{
    "name": "Pertunmaa",
    "lat": 61.5033928,
    "lon": 26.4784098
},
{
    "name": "Kiikala",
    "lat": 60.4612804,
    "lon": 23.5518226
},
{
    "name": "Oripää",
    "lat": 60.8555778,
    "lon": 22.6945818
},
{
    "name": "Hinnerjoki",
    "lat": 60.996826,
    "lon": 21.9906353
},
{
    "name": "Punkalaidun",
    "lat": 61.1157761,
    "lon": 23.0993583
},
{
    "name": "Länkipohja",
    "lat": 61.7290069,
    "lon": 24.7921264
},
{
    "name": "Ahlainen",
    "lat": 61.6728209,
    "lon": 21.6328091
},
{
    "name": "Kuru",
    "lat": 61.8783837,
    "lon": 23.7281893
},
{
    "name": "Simo",
    "lat": 65.662285,
    "lon": 25.0638163
},
{
    "name": "Kaarina",
    "lat": 60.407169,
    "lon": 22.3678223
},
{
    "name": "Mäntyluoto",
    "lat": 61.5923431,
    "lon": 21.4915334
},
{
    "name": "Inkere",
    "lat": 60.434158,
    "lon": 23.2704642
},
{
    "name": "Pertteli",
    "lat": 60.4499496,
    "lon": 23.2419585
},
{
    "name": "Noormarkku",
    "lat": 61.5927219,
    "lon": 21.8684545
},
{
    "name": "Kausala",
    "lat": 60.8903891,
    "lon": 26.3416284
},
{
    "name": "Vårdö",
    "lat": 60.2421692,
    "lon": 20.3744261
},
{
    "name": "Tervajoki",
    "lat": 63.0054636,
    "lon": 22.140901
},
{
    "name": "Leppävesi",
    "lat": 62.3273362,
    "lon": 25.8455775
},
{
    "name": "Ilmarinen",
    "lat": 60.5067484,
    "lon": 22.3789905
},
{
    "name": "Rautio",
    "lat": 64.0746882,
    "lon": 24.2083288
},
{
    "name": "Siikainen",
    "lat": 61.8766739,
    "lon": 21.8216558
},
{
    "name": "Vaajakoski",
    "lat": 62.2479788,
    "lon": 25.8626953
},
{
    "name": "Houtskär",
    "lat": 60.2199993,
    "lon": 21.3646927
},
{
    "name": "Vuorela",
    "lat": 62.9817549,
    "lon": 27.6998919
},
{
    "name": "Ryttylä",
    "lat": 60.8197018,
    "lon": 24.7596352
},
{
    "name": "Karunki",
    "lat": 66.0403001,
    "lon": 24.018313
},
{
    "name": "Monninkylä",
    "lat": 60.4936393,
    "lon": 25.5433522
},
{
    "name": "Tarvasjoki",
    "lat": 60.5805774,
    "lon": 22.75192
},
{
    "name": "Perho",
    "lat": 63.214438,
    "lon": 24.4196234
},
{
    "name": "Oitti",
    "lat": 60.7874293,
    "lon": 25.0266682
},
{
    "name": "Tuuri",
    "lat": 62.6016174,
    "lon": 23.7325656
},
{
    "name": "Muurla",
    "lat": 60.3504751,
    "lon": 23.2729512
},
{
    "name": "Pomarkku",
    "lat": 61.6935412,
    "lon": 22.0083959
},
{
    "name": "Lemland",
    "lat": 60.055716,
    "lon": 20.1220703
},
{
    "name": "Utti",
    "lat": 60.8849815,
    "lon": 26.9229413
},
{
    "name": "Kaipiainen",
    "lat": 60.8984719,
    "lon": 27.1147305
},
{
    "name": "Toholampi",
    "lat": 63.7726231,
    "lon": 24.251545
},
{
    "name": "Pusula",
    "lat": 60.4744936,
    "lon": 23.9843604
},
{
    "name": "Jeppo",
    "lat": 63.4067576,
    "lon": 22.6454863
},
{
    "name": "Läyliäinen",
    "lat": 60.6231935,
    "lon": 24.4617414
},
{
    "name": "Töysä",
    "lat": 62.6354729,
    "lon": 23.8218911
},
{
    "name": "Alavus",
    "lat": 62.5862041,
    "lon": 23.6185286
},
{
    "name": "Purmo",
    "lat": 63.5207352,
    "lon": 22.9555706
},
{
    "name": "Esse",
    "lat": 63.5964705,
    "lon": 23.0407445
},
{
    "name": "Somero",
    "lat": 60.6299165,
    "lon": 23.5139982
},
{
    "name": "Sukeva",
    "lat": 63.8714315,
    "lon": 27.430178
},
{
    "name": "Rantasalmi",
    "lat": 62.063703,
    "lon": 28.3045075
},
{
    "name": "Hammaslahti",
    "lat": 62.4328942,
    "lon": 29.9669731
},
{
    "name": "Alajärvi",
    "lat": 62.9998641,
    "lon": 23.8167613
},
{
    "name": "Nedervetil",
    "lat": 63.7092253,
    "lon": 23.3251244
},
{
    "name": "Larsmo",
    "lat": 63.7533827,
    "lon": 22.7455697
},
{
    "name": "Ullava",
    "lat": 63.7059665,
    "lon": 23.8925769
},
{
    "name": "Korsholm",
    "lat": 63.1247621,
    "lon": 21.6941345
},
{
    "name": "Nummi",
    "lat": 60.3921669,
    "lon": 23.8847493
},
{
    "name": "Korkeakoski",
    "lat": 61.7970922,
    "lon": 24.3692695
},
{
    "name": "Miehikkälä",
    "lat": 60.6691531,
    "lon": 27.6962325
},
{
    "name": "Dalsbruk",
    "lat": 60.0209926,
    "lon": 22.5067673
},
{
    "name": "Haapamäki",
    "lat": 62.2524711,
    "lon": 24.4543243
},
{
    "name": "Kiikoinen",
    "lat": 61.4606406,
    "lon": 22.5742487
},
{
    "name": "Västanfjärd",
    "lat": 60.0445468,
    "lon": 22.6780315
},
{
    "name": "Reijola",
    "lat": 62.5393524,
    "lon": 29.8377089
},
{
    "name": "Sahalahti",
    "lat": 61.4764436,
    "lon": 24.3321619
},
{
    "name": "Revonlahti",
    "lat": 64.7218379,
    "lon": 24.9674194
},
{
    "name": "Reposaari",
    "lat": 61.6125289,
    "lon": 21.4453963
},
{
    "name": "Savonranta",
    "lat": 62.1728682,
    "lon": 29.2083888
},
{
    "name": "Vesilahti",
    "lat": 61.2970187,
    "lon": 23.6388138
},
{
    "name": "Merimasku",
    "lat": 60.4799034,
    "lon": 21.871538
},
{
    "name": "Värtsilä",
    "lat": 62.2013736,
    "lon": 30.6163527
},
{
    "name": "Muuruvesi",
    "lat": 63.0153045,
    "lon": 28.2085452
},
{
    "name": "Mietoinen",
    "lat": 60.6279048,
    "lon": 21.91754
},
{
    "name": "Hämeenkoski",
    "lat": 61.0221269,
    "lon": 25.1575102
},
{
    "name": "Saari",
    "lat": 61.6968339,
    "lon": 29.6869204
},
{
    "name": "Lappi",
    "lat": 61.0998964,
    "lon": 21.8445743
},
{
    "name": "Kuusjoki",
    "lat": 60.5198785,
    "lon": 23.219296
},
{
    "name": "Viljakkala",
    "lat": 61.7069842,
    "lon": 23.2735695
},
{
    "name": "Otanmäki",
    "lat": 64.1093714,
    "lon": 27.1069546
},
{
    "name": "Kiukainen",
    "lat": 61.2071704,
    "lon": 22.0832479
},
{
    "name": "Kalanti",
    "lat": 60.8187051,
    "lon": 21.5524799
},
{
    "name": "Köyliö",
    "lat": 61.1180915,
    "lon": 22.3059348
},
{
    "name": "Koski Tl",
    "lat": 60.6530502,
    "lon": 23.1406187
},
{
    "name": "Pulkkila",
    "lat": 64.2730139,
    "lon": 25.8672323
},
{
    "name": "Vinkkilä",
    "lat": 60.6861761,
    "lon": 21.7181447
},
{
    "name": "Jäppilä",
    "lat": 62.3772771,
    "lon": 27.4334684
},
{
    "name": "Saukkola",
    "lat": 60.3819956,
    "lon": 23.9695291
},
{
    "name": "Vahto",
    "lat": 60.6100315,
    "lon": 22.3075198
},
{
    "name": "Lokalahti",
    "lat": 60.6823576,
    "lon": 21.4644839
},
{
    "name": "Nummela",
    "lat": 60.3339805,
    "lon": 24.3208686
},
{
    "name": "Kyrö",
    "lat": 60.7029584,
    "lon": 22.7553823
},
{
    "name": "Parola",
    "lat": 61.051566,
    "lon": 24.3656253
},
{
    "name": "Vääksy",
    "lat": 61.1752192,
    "lon": 25.5300579
},
{
    "name": "Lieto as",
    "lat": 60.5666337,
    "lon": 22.4465861
},
{
    "name": "Vammala",
    "lat": 61.3441735,
    "lon": 22.9094429
},
{
    "name": "Kuivaniemi",
    "lat": 65.5766829,
    "lon": 25.1950376
},
{
    "name": "Mänttä",
    "lat": 62.0294216,
    "lon": 24.6232138
},
{
    "name": "Eurajoki",
    "lat": 61.2018184,
    "lon": 21.7296943
},
{
    "name": "Hanko",
    "lat": 59.8228008,
    "lon": 22.9695005
},
{
    "name": "Sääksmäki",
    "lat": 61.2016604,
    "lon": 24.0696292
},
{
    "name": "Riihikoski",
    "lat": 60.7199253,
    "lon": 22.6047217
},
{
    "name": "Kangaslampi",
    "lat": 62.2961379,
    "lon": 28.2512334
},
{
    "name": "Velkua",
    "lat": 60.4664777,
    "lon": 21.6654628
},
{
    "name": "Niukkala",
    "lat": 61.7546611,
    "lon": 29.8968235
},
{
    "name": "Hirvikoski",
    "lat": 60.8679589,
    "lon": 22.9851698
},
{
    "name": "Ulvila",
    "lat": 61.4333298,
    "lon": 21.8833199
},
{
    "name": "Luumäki",
    "lat": 60.9278959,
    "lon": 27.6298413
}]