[
{
    "name": "Helsingborg",
    "lat": 56.0441984,
    "lon": 12.7040684
},
{
    "name": "Linköping",
    "lat": 58.4098135,
    "lon": 15.6245252
},
{
    "name": "Växjö",
    "lat": 56.8787183,
    "lon": 14.8094385
},
{
    "name": "Uppsala",
    "lat": 59.8586126,
    "lon": 17.6387436
},
{
    "name": "Stockholm",
    "lat": 59.3251172,
    "lon": 18.0710935
},
{
    "name": "Göteborg",
    "lat": 57.7072326,
    "lon": 11.9670171
},
{
    "name": "Karlstad",
    "lat": 59.3809146,
    "lon": 13.5027631
},
{
    "name": "Malmö",
    "lat": 55.6052931,
    "lon": 13.0001566
},
{
    "name": "Gävle",
    "lat": 60.6750132,
    "lon": 17.1467019
},
{
    "name": "Umeå",
    "lat": 63.8256568,
    "lon": 20.2630745
},
{
    "name": "Västerås",
    "lat": 59.6110992,
    "lon": 16.5463679
},
{
    "name": "Östersund",
    "lat": 63.1793655,
    "lon": 14.6357061
},
{
    "name": "Luleå",
    "lat": 65.5831187,
    "lon": 22.1459535
},
{
    "name": "Örnsköldsvik",
    "lat": 63.2888613,
    "lon": 18.7160209
},
{
    "name": "Örebro",
    "lat": 59.2747287,
    "lon": 15.2151181
},
{
    "name": "Eskilstuna",
    "lat": 59.3717379,
    "lon": 16.5051474
},
{
    "name": "Jönköping",
    "lat": 57.7825634,
    "lon": 14.165719
},
{
    "name": "Sundsvall",
    "lat": 62.3907552,
    "lon": 17.3071024
},
{
    "name": "Falun",
    "lat": 60.6070068,
    "lon": 15.6323059
},
{
    "name": "Halmstad",
    "lat": 56.6739826,
    "lon": 12.8574827
},
{
    "name": "Karlskrona",
    "lat": 56.1621073,
    "lon": 15.5866422
},
{
    "name": "Kalmar",
    "lat": 56.6628826,
    "lon": 16.3662382
},
{
    "name": "Oslo",
    "lat": 59.9133301,
    "lon": 10.7389701
},
{
    "name": "Bergen",
    "lat": 60.3943055,
    "lon": 5.3259192
},
{
    "name": "Haugesund",
    "lat": 59.4138214,
    "lon": 5.2680735
},
{
    "name": "Stavanger",
    "lat": 58.9699509,
    "lon": 5.7318061
},
{
    "name": "Drammen",
    "lat": 59.7436749,
    "lon": 10.2043749
},
{
    "name": "Fredrikstad",
    "lat": 59.2133614,
    "lon": 10.9361604
},
{
    "name": "Kristiansand",
    "lat": 58.14615,
    "lon": 7.9957333
},
{
    "name": "Moss",
    "lat": 59.4347974,
    "lon": 10.6619753
},
{
    "name": "Porsgrunn",
    "lat": 59.140759,
    "lon": 9.6562495
},
{
    "name": "Sarpsborg",
    "lat": 59.2838792,
    "lon": 11.1096115
},
{
    "name": "Sandefjord",
    "lat": 59.1300112,
    "lon": 10.2255602
},
{
    "name": "Skien",
    "lat": 59.2091003,
    "lon": 9.607544
},
{
    "name": "Trondheim",
    "lat": 63.4305658,
    "lon": 10.3951929
},
{
    "name": "Tønsberg",
    "lat": 59.2677363,
    "lon": 10.4080715
},
{
    "name": "Ålesund",
    "lat": 62.4711397,
    "lon": 6.1551776
},
{
    "name": "Pilestredet park",
    "lat": 59.9196736,
    "lon": 10.7377275
},
{
    "name": "Bodø",
    "lat": 67.2839476,
    "lon": 14.3825834
},
{
    "name": "Tromsø",
    "lat": 69.649208,
    "lon": 18.9543434
},
{
    "name": "Vannkunsten",
    "lat": 59.9066488,
    "lon": 10.7579489
},
{
    "name": "København",
    "lat": 55.6867243,
    "lon": 12.5700724
},
{
    "name": "Roskilde",
    "lat": 55.6433478,
    "lon": 12.0819247
},
{
    "name": "Esbjerg",
    "lat": 55.4664892,
    "lon": 8.4520751
},
{
    "name": "Randers",
    "lat": 56.4617545,
    "lon": 10.0371476
},
{
    "name": "Kolding",
    "lat": 55.4894999,
    "lon": 9.47905
},
{
    "name": "Vejle",
    "lat": 55.7000057,
    "lon": 9.5333238
},
{
    "name": "Aarhus",
    "lat": 56.1496278,
    "lon": 10.2134046
},
{
    "name": "Odense",
    "lat": 55.3997225,
    "lon": 10.3852104
},
{
    "name": "Horsens",
    "lat": 55.8611696,
    "lon": 9.8444774
},
{
    "name": "Aalborg",
    "lat": 57.0462626,
    "lon": 9.9215263
},
{
    "name": "Pori",
    "lat": 61.4865542,
    "lon": 21.7968951
},
{
    "name": "Turku",
    "lat": 60.4517531,
    "lon": 22.2670522
},
{
    "name": "Espoo",
    "lat": 60.2047672,
    "lon": 24.6568435
},
{
    "name": "Oulu",
    "lat": 65.0118734,
    "lon": 25.4716809
},
{
    "name": "Vantaa",
    "lat": 60.3091871,
    "lon": 25.0364526
},
{
    "name": "Tampere",
    "lat": 61.4980214,
    "lon": 23.7603118
},
{
    "name": "Kuopio",
    "lat": 62.8924601,
    "lon": 27.6781839
},
{
    "name": "Lahti",
    "lat": 60.9826014,
    "lon": 25.6613764
},
{
    "name": "Joensuu",
    "lat": 62.6006257,
    "lon": 29.7584591
},
{
    "name": "Kajaani",
    "lat": 64.2240872,
    "lon": 27.7334227
},
{
    "name": "Kokkola",
    "lat": 63.8391421,
    "lon": 23.1336845
},
{
    "name": "Kotka",
    "lat": 60.4674228,
    "lon": 26.9450844
},
{
    "name": "Kouvola",
    "lat": 60.8701996,
    "lon": 26.7018042
},
{
    "name": "Lappeenranta",
    "lat": 61.0583713,
    "lon": 28.1862742
},
{
    "name": "Seinäjoki",
    "lat": 62.7954104,
    "lon": 22.8442015
},
{
    "name": "Hämeenlinna",
    "lat": 60.9948584,
    "lon": 24.46654
},
{
    "name": "Rovaniemi",
    "lat": 66.4976214,
    "lon": 25.7192101
},
{
    "name": "Salo",
    "lat": 60.3846716,
    "lon": 23.1286377
},
{
    "name": "Mikkeli",
    "lat": 61.6877956,
    "lon": 27.2726569
},
{
    "name": "Jyväskylä",
    "lat": 62.2393002,
    "lon": 25.745951
},
{
    "name": "Helsinki",
    "lat": 60.1674881,
    "lon": 24.9427473
},
{
    "name": "Vaasa",
    "lat": 63.0957722,
    "lon": 21.6159187
},
{
    "name": "Tuulimäki",
    "lat": 60.1731767,
    "lon": 24.8047398
},
{
    "name": "Fortuna",
    "lat": 60.4488929,
    "lon": 22.2677321
},
{
    "name": "Aarnimetsä",
    "lat": 59.8297937,
    "lon": 22.9404695
}]